X,Y,OBJECTID,OSHPD_ID,LICENSE_NO,LICENSEID,ADDRESSID,FACILITYID,ENTITYID,PERM_ID,FACILITY,ALIAS,ADDRESS_1,ADDRESS_2,CITY,STATE,ZIP_CODE,ZIPPLUS4,CONTACT,PHONE,FAC_TYPE,FAC_STATUS,STATUS_ID,STATUS_DAT,ADDR_DATE,TYPE,TYPE_ID,CATEGORY,CATEGRY_ID,CNTRL_CTGY,CNTRL_TYPE,LIC_BEDS,LIC_ED_LVL,EMS_TRAUMA,TEACH_HOSP,RURAL_HOSP,GCD_MTYPE,GCD_SCORE,LONGITUDE,LATITUDE,COUNTY,CNTY_FIPS,MSSA_ID,MSSA_DFN,TRACT_FIPS,TRACT,BLOCK_FIPS,SD,AD,CD,OES,FDD,HSA,SPA,RUCA,MA,UA,CAH,DSH,FQHC,FQHC_LOOK
-117.21870414261357,32.753103207657254,7448,206370763,090000088,53321,71840,1507,4562,22351,POINT LOMA CONVALESCENT HOSPITAL,Point Loma Conv,3202 Duke St,,San Diego,CA,92110,5401,,,2,Open,2,1964/01/23,2007/03/28,Long Term Care Facility,4,Skilled Nursing Facility,18,,,133.00000000,,,0,0,,0,-117.21871600,32.75310800,San Diego,073,161n,Urban,06073006802,68.02,060730068022000,39,76,53,3,SOU,14,0,0,1,1,0,0,0,0
-115.50557985159584,32.69400462896543,7449,306131254,090000137,58538,150381,2065,584,34442,CLINICAS DE SALUD DEL PUEBLO INC - CALEXICO,Clinicas De Salud Del Pueblo,223 W Cole Rd,,Calexico,CA,92231,,,,3,Open,2,1978/05/17,2011/06/09,Clinic,1,Community Clinic,5,Nonprofit,Nonprofit - Corporation,0.00000000,,,0,0,,89,-115.50559140,32.69400950,Imperial,025,49,Rural,06025011900,119,060250119001102,40,80,51,3,SOU,14,0,1,1,0,0,0,0,0
-121.24753090006084,38.761505843257559,7450,306314031,030000764,28918,67025,2756,2300,38019,ROSEVILLE SURGERY CENTER,Roseville Surgery Ctr,1420 E Roseville Pkwy Ste 100,Ste 100,Roseville,CA,95661,3080,,,3,Closed,1,2007/09/19,2007/01/11,Clinic,1,Surgical Clinic,20,Investor Owned,Investor - Corporation,0.00000000,,,0,0,,0,-121.24754400,38.76151100,Placer,061,121.1,Urban,06061020704,207.04,060610207041007,01,04,04,2,NOR,02,0,0,1,1,0,0,0,0
-117.89651194484762,33.839351116428823,7451,206301294,060000156,58260,70853,1273,2049,20452,PARKVIEW HEALTHCARE CENTER-ANAHEIM,Parkview Hlth Care Ctr,1514 E Lincoln Ave,,Anaheim,CA,92805,2219,,,2,Open,2,1957/07/26,2007/03/19,Long Term Care Facility,4,Skilled Nursing Facility,18,Investor Owned,Investor - Limited Liability Company,41.00000000,,,0,0,,0,-117.89652400,33.83935600,Orange,059,116q,Urban,06059086301,863.01,060590863011003,34,72,47,3,SLA,13,0,0,1,1,0,0,0,0
-122.29861979146361,38.319102959326514,7452,406284002,010000218,55155,64983,4100,3130,46371,YOUR HOME NURSING SERVICES,Your Home Nursing Svcs,3188 Jefferson St,,Napa,CA,94558,4924,,,4,Open,2,1990/11/20,2006/11/30,Home Health Agency/Hospice,2,Home Health Agency,9,,,0.00000000,,,0,0,,0,-122.29863300,38.31910800,Napa,055,112.2,Rural,06055200502,2005.02,060552005021003,02,07,01,1,NOR,03,0,0,1,1,0,0,0,0
-122.04987583549062,38.260079945219381,7453,406484041,010000436,56974,88676,4729,3419,48635,"EAST BAY HOME HEALTH SERVICES, INC.",East Bay Home Hlth Svcs,1710 Pennsylvania Ave,,Fairfield,CA,94533,,,,4,Open,2,2003/04/01,2008/03/24,Home Health Agency/Hospice,2,Home Health Agency,9,,,0.00000000,,,0,0,,0,-122.04988900,38.26008500,Solano,095,202b,Urban,06095252604,2526.04,060952526041008,05,08,10,1,NOR,03,0,0,1,1,0,0,0,0
-117.86712195474526,33.782957120811879,7454,306304322,060000919,55902,66133,4854,2652,38657,PUENTE A LA SALUD-MOBILE UNIT IV,Puente A La Salud (Mobile),363 S Main St,,Orange,CA,92868,3833,,,3,Open,2,2004/02/26,2006/12/27,Clinic,1,Community Clinic,5,Nonprofit,Nonprofit - Corporation,0.00000000,,,0,0,,0,-117.86713400,33.78296200,Orange,059,116h,Urban,06059076000,760,060590760005002,33,72,40,3,SLA,13,0,0,1,1,0,0,0,0
-121.9620169615369,37.283255022725093,7455,206430767,070000041,54998,3185,1673,1384,20884,GREENHILLS MANOR,Greenhills Manor,238 Virginia Ave,,Campbell,CA,95008,,,,2,Open,2,1966/01/03,2003/08/12,Long Term Care Facility,4,Skilled Nursing Facility,18,,,45.00000000,,,0,0,,100,-121.96203000,37.28326000,Santa Clara,085,183m,Urban,06085506603,5066.03,060855066031016,11,24,15,1,COA,07,0,0,1,1,0,0,0,0
-119.26173766604971,34.44198512630966,7456,306564045,050000307,54021,5920,3436,585,31506,OJAI VALLEY COMMUNITY HEALTH CENTER,Ojai Valley Cmty Hlth Ctr,1200 Maricopa Hwy,,Ojai,CA,93023,,,,3,Open,2,1993/07/21,2003/08/12,Clinic,1,Community Clinic,5,Nonprofit,Nonprofit - Corporation,0.00000000,,,0,0,,100,-119.26175000,34.44199000,Ventura,111,238,Rural,06111000901,9.01,061110009011013,19,37,24,3,MID,10,0,0,1,1,0,0,0,0
-119.72513759057396,34.430085153971895,7457,306424045,CPN0545,39245,5548,3192,3917,37493,PREMIER SURGERY CENTER OF SANTA BARBARA,Premier Surgery Ctr,2420 Fletcher Ave,,Santa Barbara,CA,93105,,,,3,Closed,1,2009/12/31,2003/08/12,Clinic,1,Surgical Clinic,20,,,0.00000000,,,0,0,,100,-119.72515000,34.43009000,Santa Barbara,083,181b,Urban,06083000300,3,060830003002003,19,35,23,3,MID,10,0,0,1,1,0,0,0,0
-118.50318782824289,34.021835128786066,7458,206190294,910000048,54401,1710,897,5357,21633,FIRESIDE CONVALESCENT HOSPITAL,Fireside Conv,947 3Rd St,,Santa Monica,CA,90403,,,,2,Open,2,1950/04/21,2003/08/12,Long Term Care Facility,4,Skilled Nursing Facility,18,,,66.00000000,,,0,0,,100,-118.50320000,34.02184000,Los Angeles,037,78.2kkkk,Urban,06037701400,7014,060377014001004,23,41,30,3,NLA,11,5,0,1,1,0,0,0,0
-121.3043259106703,38.596736861161489,7459,206341499,100000131,54947,64845,1390,2,20613,CASA COLOMA HEALTH CARE CENTER,Casa Coloma Hlth Care Ctr,10410 Coloma Rd,,Rancho Cordova,CA,95670,2108,,,2,Open,2,1966/06/29,2006/11/29,Long Term Care Facility,4,Skilled Nursing Facility,18,,,138.00000000,,,0,0,,0,-121.30433900,38.59674200,Sacramento,067,139g,Urban,06067008905,89.05,060670089051007,06,10,05,2,NOR,02,0,0,1,1,0,0,0,0
-121.78321294530566,37.67660297626621,7460,206010825,140000040,52875,72225,577,1485,21281,HACIENDA CARE CENTER - LIVERMORE,Hacienda Care Ctr - Livermore,76 Fenton St,,Livermore,CA,94550,4144,,,2,Open,2,1966/06/27,2007/04/20,Long Term Care Facility,4,Skilled Nursing Facility,18,Investor Owned,Investor - Limited Liability Company,83.00000000,,,0,0,,0,-121.78322600,37.67660800,Alameda,001,1.1,Urban,06001451602,4516.02,060014516021014,09,15,10,1,CEN,05,0,0,1,1,0,0,0,0
-121.87372893166196,37.661579984171375,7461,306010834,140000043,52997,66801,1854,3611,33822,AXIS COMMUNITY HEALTH,Axis Cmty Hlth,4361 Railroad Ave,,Pleasanton,CA,94566,6611,,,3,Open,2,1977/06/05,2007/01/09,Clinic,1,Community Clinic,5,Nonprofit,Nonprofit - Corporation,0.00000000,,,0,0,,0,-121.87374200,37.66158500,Alameda,001,2k,Urban,06001450607,4506.07,060014506072007,10,20,11,1,CEN,05,0,0,1,1,0,0,0,0
-122.23118686192606,37.799164998062558,7462,106010846,140000046,53955,15,8,66,11288,ALAMEDA CO MED CTR - HIGHLAND CAMPUS,"Alameda Co Med Ctr, Highland",1411 E 31St St,,Oakland,CA,94602,,,,1,Open,2,1953/07/01,2003/08/12,Hospital,3,General Acute Care Hospital,8,Government,Public - City or County,316.00000000,Emergency - Basic,Level II Trauma Center,1,0,,100,-122.23120000,37.79917000,Alameda,001,2c,Urban,06001405700,4057,060014057001012,09,16,09,1,CEN,05,0,0,1,1,0,1,0,0
-122.12055688933764,37.7078849973527,7463,106010811,140000046,53955,11,6,66,11268,ALAMEDA CO MED CTR - FAIRMONT CAMPUS,"Alameda Co Med Ctr, Fairmont",15400 Foothill Blvd,,San Leandro,CA,94578,,,,1,Open,2,1953/07/01,2003/08/12,Hospital,3,General Acute Care Hospital,8,Government,Public - City or County,159.00000000,,,0,0,,100,-122.12057000,37.70789000,Alameda,001,2f,Urban,06001430500,4305,060014305001004,10,18,09,1,CEN,05,0,0,1,1,0,0,0,0
-122.25799685464213,37.824314996827511,7464,106010856,140000052,54767,17,9,1453,11296,KAISER FND HOSP - OAKLAND CAMPUS,"Kaiser, Oakland",280 W Macarthur Blvd,,Oakland,CA,94611,,,,1,Open,2,1946/01/01,2003/08/12,Hospital,3,General Acute Care Hospital,8,Nonprofit,Nonprofit - Corporation,341.00000000,Emergency - Basic,,1,0,,100,-122.25801000,37.82432000,Alameda,001,2b,Urban,06001404000,4040,060014040002004,09,14,09,1,CEN,05,0,0,1,1,0,0,0,0
-122.36090682640199,37.936904994871675,7465,106074093,140000052,54767,82,44,1453,17749,KAISER FND HOSP - RICHMOND CAMPUS,"Kaiser, Richmond",901 Nevin Ave,,Richmond,CA,94804,,,,1,Open,2,1995/09/07,2003/08/12,Hospital,3,General Acute Care Hospital,8,Nonprofit,Nonprofit - Corporation,50.00000000,Emergency - Basic,,0,0,,100,-122.36092000,37.93691000,Contra Costa,013,18f,Urban,06013376000,3760,060133770003004,09,14,07,1,CEN,05,0,0,1,1,0,0,0,0
-122.09336690244243,37.625925002096189,7466,106010858,140000053,54766,19,10,1453,11295,KAISER FND HOSP - HAYWARD/FREMONT,"Kaiser, Hayward",27400 Hesperian Blvd,,Hayward,CA,94545,,,,1,Open,2,1966/12/01,2003/08/12,Hospital,3,General Acute Care Hospital,8,Nonprofit,Nonprofit - Corporation,213.00000000,Emergency - Basic,,0,0,,100,-122.09338000,37.62593000,Alameda,001,2g,Urban,06001438300,4383,060014383003004,10,18,13,1,CEN,05,0,0,1,1,0,0,0,0
-121.97481692946172,37.550545000118426,7467,106014132,140000053,54766,44,23,1453,14509,KAISER FND HOSP - FREMONT,"Kaiser, Fremont",39400 Paseo Padre Pkwy,,Fremont,CA,94538,,,,1,Open,2,1996/12/01,2003/08/12,Hospital,3,General Acute Care Hospital,8,Nonprofit,Nonprofit - Corporation,106.00000000,Emergency - Basic,,0,0,,100,-121.97483000,37.55055000,Alameda,001,2l,Urban,06001441901,4419.01,060014419012020,10,20,13,1,CEN,05,0,0,1,1,0,0,0,0
-122.22513686538925,37.778744999010698,7468,306010864,140000056,26931,3522,1855,1509,33108,LA CLINICA DE LA RAZA FRUITVALE HEALTH PROJECT,La Clinica De La Raza Hlth,1500 Fruitvale Ave,,Oakland,CA,94601,,,,3,Closed,1,2007/04/21,2003/08/12,Clinic,1,Community Clinic,5,Nonprofit,Nonprofit - Corporation,0.00000000,,,0,0,,100,-122.22515000,37.77875000,Alameda,001,2d,Urban,06001407200,4072,060014062022000,09,16,09,1,CEN,05,0,0,1,1,0,0,0,0
-122.13117688647907,37.71620499673881,7469,106010887,140000066,52971,23,12,2785,11321,KINDRED HOSPITAL - SAN FRANCISCO BAY AREA,"Kindred, SF Bay",2800 Benedict Dr,,San Leandro,CA,94577,,,,1,Open,2,1962/11/13,2003/08/12,Hospital,3,General Acute Care Hospital,8,Investor Owned,Investor - Corporation,99.00000000,,,0,0,,100,-122.13119000,37.71621000,Alameda,001,2f,Urban,06001432800,4328,060014328004006,10,18,13,1,CEN,05,0,0,1,1,0,0,0,0
-122.24418685747138,37.820044996698499,7470,306011316,140000152,53991,3534,1863,155,33869,"ANN MARTIN CHILDREN'S CENTER, INC",Ann Martin Children's Ctr,1250 Grand Ave,,Piedmont,CA,94610,,,,3,Open,2,1976/09/22,2003/08/12,Clinic,1,Community Clinic,5,Nonprofit,Nonprofit - Corporation,0.00000000,,,0,0,,100,-122.24420000,37.82005000,Alameda,001,2m,Urban,06001426200,4262,060014262002012,09,16,09,1,CEN,05,0,0,1,1,0,0,0,0
-122.2263468648386,37.777954999291389,7471,306011515,140000155,34097,9464,1864,3712,33995,EAST BAY NATIVE AMERICAN HEALTH CENTER,East Bay Native American Hlth Ctr,3124 International Blvd,,Oakland,CA,94601,,,,3,Closed,1,2008/09/21,2003/09/22,Clinic,1,Community Clinic,5,Nonprofit,Nonprofit - Corporation,0.00000000,,,0,0,,100,-122.22636000,37.77796000,Alameda,001,2d,Urban,06001406202,4062.02,060014062022007,09,16,09,1,CEN,05,0,0,1,1,0,0,0,0
-122.06587989954514,37.682790996321344,7472,306012770,140000159,47047,69963,1865,2101,33136,PLANNED PARENTHOOD GOLDEN GATE - HAYWARD,Planned Parenthood Golden Gate,1866 B St,,Hayward,CA,94541,3139,,,3,Closed,1,2010/12/31,2007/03/05,Clinic,1,Community Clinic,5,Nonprofit,Nonprofit - Corporation,0.00000000,,,0,0,,0,-122.06589300,37.68279600,Alameda,001,2n,Urban,06001435300,4353,060014353001003,10,18,13,1,CEN,05,0,0,1,1,0,0,0,0
-122.26265684946198,37.867444994164458,7473,306012807,140000160,56824,3539,1866,260,34268,BERKELEY COMMUNITY HEALTH PROJECT,Berkeley Cmty Hlth Project,2339 Durant Ave,,Berkeley,CA,94704,,,,3,Open,2,1977/07/20,2003/08/12,Clinic,1,Free Clinic,7,Nonprofit,Nonprofit - Corporation,0.00000000,,,0,0,,100,-122.26267000,37.86745000,Alameda,001,2a,Urban,06001422800,4228,060014228003003,09,14,09,1,CEN,05,0,0,1,1,0,0,0,0
-121.82273690254232,37.998477951191141,7474,306072898,140000161,52085,69900,1968,2111,33430,PLANNED PARENTHOOD - ANTIOCH,Planned Parenthood,1104 Buchanan Rd Ste C10,,Antioch,CA,94509,4226,,,3,Open,2,1975/04/01,2007/03/01,Clinic,1,Community Clinic,5,Nonprofit,Nonprofit - Corporation,0.00000000,,,0,0,,0,-121.82275000,37.99848300,Contra Costa,013,18d,Urban,06013307205,3072.05,060133072041000,07,11,10,1,CEN,05,0,0,1,1,0,0,0,0
-122.25370184991591,37.868257992972921,7475,306013274,140000166,40233,69729,1867,2829,34227,"WRIGHT INSTITUTE, THE",Wright Institute,2728 Durant Ave,,Berkeley,CA,94704,1725,,,3,Closed,1,2009/02/12,2007/02/28,Clinic,1,Community Clinic,5,Nonprofit,Nonprofit - Corporation,0.00000000,,,0,0,,0,-122.25371500,37.86826300,Alameda,001,2a,Urban,06001422700,4227,060014227003002,09,14,09,1,CEN,05,0,0,1,1,0,0,0,0
-122.26156685052756,37.857124995139856,7476,306013335,140000170,49048,3543,1868,3393,34329,BERKELEY WOMEN'S HEALTH CENTER,Berkeley Women's Hlth Ctr,2908 Ellsworth St,,Berkeley,CA,94705,,,,3,Open,2,1978/03/08,2003/08/12,Clinic,1,Community Clinic,5,Nonprofit,Nonprofit - Corporation,0.00000000,,,0,0,,100,-122.26158000,37.85713000,Alameda,001,2b,Urban,06001423601,4236.01,060014236012005,09,14,09,1,CEN,05,0,0,1,1,0,0,0,0
-122.22527886476324,37.780108998739721,7477,306013346,140000171,52801,70196,1869,1509,34420,LA CLINICA DE LA RAZA DENTAL,La Clinica De La Raza Hlth,3050 E 16Th St,,Oakland,CA,94601,2319,,,3,Open,2,1978/04/21,2007/03/08,Clinic,1,Community Clinic,5,Nonprofit,Nonprofit - Corporation,0.00000000,,,0,0,,0,-122.22529200,37.78011400,Alameda,001,2d,Urban,06001406202,4062.02,060014062021011,09,16,09,1,CEN,05,0,0,1,1,0,0,0,0
-122.22537986516726,37.778980998586604,7478,306013347,140000172,53011,70198,1870,4107,34395,CASA DEL SOL,Casa Del Sol,1501 Fruitvale Ave,,Oakland,CA,94601,2322,,,3,Open,2,1978/05/06,2007/03/08,Clinic,1,Community Clinic,5,Nonprofit,Nonprofit - Corporation,0.00000000,,,0,0,,0,-122.22539300,37.77898600,Alameda,001,2d,Urban,06001406202,4062.02,060014062022000,09,16,09,1,CEN,05,0,0,1,1,0,0,0,0
-122.08736686217459,37.99037497107394,7479,206073349,140000173,53240,1278,676,4874,20077,MUIR SENIOR CARE,Muir Senior Care,1790 Muir Rd,,Martinez,CA,94553,,,,2,Open,2,1969/01/01,2003/08/12,Long Term Care Facility,4,Skilled Nursing Facility,18,,,96.00000000,,,0,0,,100,-122.08738000,37.99038000,Contra Costa,013,18i,Urban,06013321101,3211.01,060133211011006,07,11,07,1,CEN,05,0,0,1,1,0,0,0,0
-122.07015687715777,37.878201978847336,7480,206073366,140000174,55041,61755,677,4845,24830,KINDRED TRANSITIONAL CARE & REHABILITATION-WALNUT CREEK,Kindred Transitional Care,1224 Rossmoor Pkwy,,Walnut Creek,CA,94595,2501,,,2,Open,2,1972/06/01,2006/10/11,Long Term Care Facility,4,Skilled Nursing Facility,18,,,180.00000000,,,0,0,,0,-122.07017000,37.87820700,Contra Costa,013,18j,Urban,06013342000,3420,060133420003011,07,15,10,1,CEN,05,0,0,1,1,0,0,0,0
-122.17753487447219,37.766332995930085,7481,306013441,140000178,47049,98773,1871,2101,33154,PLANNED PARENTHOOD GOLDEN GATE - EASTMONT,Planned Parenthood Golden Gate,7200 Bancroft Ave,,Oakland,CA,94605,,,,3,Closed,1,2010/12/31,2008/12/15,Clinic,1,Community Clinic,5,Nonprofit,Nonprofit - Corporation,0.00000000,,,0,0,,0,-122.17754800,37.76633800,Alameda,001,2d,Urban,06001408600,4086,060014086001007,09,16,09,1,CEN,05,0,0,1,1,0,0,0,0
-122.20224586461023,37.807882994918522,7482,306013623,140000185,35236,69901,1872,323,34019,EAST BAY AGENCY FOR CHILDREN - OAKLAND,East Bay Agcy For Children,2540 Charleston St,,Oakland,CA,94602,2508,,,3,Closed,1,2009/02/02,2007/03/01,Clinic,1,Community Clinic,5,Nonprofit,Nonprofit - Corporation,0.00000000,,,0,0,,0,-122.20225900,37.80788800,Alameda,001,2m,Urban,06001406700,4067,060014067001002,09,16,09,1,CEN,05,0,0,1,1,0,0,0,0
-122.02634387555408,37.95713996859871,7483,206073625,140000186,55471,66853,678,2860,24412,SAN MIGUEL VILLA,San Miguel Villa,1050 San Miguel Rd,,Concord,CA,94518,2094,,,2,Open,2,1979/02/15,2007/01/09,Long Term Care Facility,4,Skilled Nursing Facility,18,,,190.00000000,,,0,0,,0,-122.02635700,37.95714500,Contra Costa,013,18c,Urban,06013337200,3372,060133372003000,07,11,10,1,CEN,05,0,0,1,1,0,0,0,0
-122.24924586025475,37.791930999726844,7484,306013628,140000189,50722,67017,1873,4107,34276,SAN ANTONIO NEIGHBORHOOD HEALTH CENTER,San Antonio Neighborhood Hlth Ctr,1030 International Blvd,,Oakland,CA,94606,3730,,,3,Open,2,1978/02/01,2007/01/10,Clinic,1,Community Clinic,5,Nonprofit,Nonprofit - Corporation,0.00000000,,,0,0,,0,-122.24925900,37.79193600,Alameda,001,2c,Urban,06001405400,4054,060014054003004,09,16,09,1,CEN,05,0,0,1,1,0,0,0,0
-122.26999884984674,37.848762995786998,7485,306013630,140000191,50716,66810,1874,3394,34463,LIFELONG DENTAL CARE,Lifelong Dental,1860 Alcatraz Ave,,Berkeley,CA,94703,2715,,,3,Open,2,1979/02/06,2007/01/09,Clinic,1,Community Clinic,5,Nonprofit,Nonprofit - Corporation,0.00000000,,,0,0,,0,-122.27001200,37.84876800,Alameda,001,2a,Urban,06001423901,4239.01,060014239012014,09,14,09,1,CEN,05,0,0,1,1,0,0,0,0
-122.29477583971585,37.905828993255803,7486,306074047,140000193,49111,66144,1978,3056,32123,WEST COAST CHILDRENS CLINIC,West Coast Childrens Ctr,545 Ashbury Ave,,El Cerrito,CA,94530,3220,,,3,Closed,1,2011/12/20,2006/12/27,Clinic,1,Community Clinic,5,Nonprofit,Nonprofit - Corporation,0.00000000,,,0,0,,0,-122.29478900,37.90583400,Contra Costa,013,18g,Urban,06013389100,3891,060133891001000,07,14,10,1,CEN,05,0,0,1,1,0,0,0,0
-121.80516890587822,37.98089595075016,7487,206073641,140000199,55059,64756,680,1600,20060,LONE TREE CONVALESCENT HOSPITAL,Lone Tree Convalescent,4001 Lone Tree Way,,Antioch,CA,94509,6232,,,2,Open,2,1968/12/05,2006/11/29,Long Term Care Facility,4,Skilled Nursing Facility,18,,,99.00000000,,,0,0,,0,-121.80518200,37.98090100,Contra Costa,013,18e,Urban,06013355101,3551.01,060133551011097,07,11,10,1,CEN,05,0,0,1,1,0,0,0,0
-122.33534682794605,37.955531991562211,7488,206073644,140000202,53349,72211,681,1140,20040,VALE HEALTHCARE CENTER,Vale Hlthcare Ctr,13484 San Pablo Ave,,San Pablo,CA,94806,3904,,,2,Open,2,1968/07/16,2007/04/20,Long Term Care Facility,4,Skilled Nursing Facility,18,,,202.00000000,,,0,0,,0,-122.33536000,37.95553700,Contra Costa,013,18f,Urban,06013369001,3690.01,060133690012021,09,14,07,1,CEN,05,0,0,1,1,0,0,0,0
-122.27039685592848,37.79897499991575,7489,306013648,140000206,49072,3557,1875,192,34649,ASIAN COMMUNITY MENTAL HEALTH SERVICES,Asian Cmty Mental Hlth Svcs,310 8Th St,Ste 201,Oakland,CA,94607,,,,3,Open,2,1980/09/29,2003/08/12,Clinic,1,Community Clinic,5,Nonprofit,Nonprofit - Corporation,0.00000000,,,0,0,,100,-122.27041000,37.79898000,Alameda,001,2c,Urban,06001403000,4030,060014030002012,09,16,09,1,CEN,05,0,0,1,1,0,0,0,0
-121.75514694861377,37.676044974254843,7490,306013649,140000207,53968,3558,1876,3611,34725,AXIS COMMUNITY HEALTH,Axis Cmty Hlth,3311 Pacific Ave,,Livermore,CA,94550,,,,3,Open,2,1981/08/24,2003/08/12,Clinic,1,Community Clinic,5,Nonprofit,Nonprofit - Corporation,0.00000000,,,0,0,,100,-121.75516000,37.67605000,Alameda,001,1.2,Rural,06001451501,4515.01,060014515011015,09,15,10,1,CEN,05,0,0,1,1,0,0,0,0
-122.34301562597872,37.961612391635498,7491,306073651,140000209,49120,123824,1969,5355,34634,SAN PABLO DIALYSIS,San Pablo Dialysis,14020 San Pablo Ave,,San Pablo,CA,94806,,,,3,Open,2,1980/04/25,2010/01/25,Clinic,1,Chronic Dialysis Clinic,4,,,0.00000000,,,0,0,,100,-122.34302880,37.96161740,Contra Costa,013,18f,Urban,06013369001,3690.01,060133690012001,09,14,07,1,CEN,05,0,0,1,1,0,0,0,0
-122.25827682294998,38.101044973619032,7492,406482273,010000234,148,7371,4477,2678,45210,"STAFF BUILDERS SERVICES, INC.",Staff Builders Svcs,301 Georgia St,Ste 300,Vallejo,CA,94590,,,,4,Closed,1,2001/10/31,2003/08/12,Home Health Agency/Hospice,2,Home Health Agency,9,Investor Owned,Investor - Corporation,0.00000000,,,0,0,,100,-122.25829000,38.10105000,Solano,095,204,Urban,06095250900,2509,060952509002009,02,07,07,1,NOR,03,0,0,1,1,0,0,0,0
-122.66219671762767,38.464614974124707,7493,406494034,010000243,51262,7394,4492,1268,46752,"HOME HEALTH CARE, INC - SANTA ROSA",Home Hlth Care,4983 Sonoma Hwy,Ste E,Santa Rosa,CA,95409,,,,4,Open,2,1992/06/09,2003/08/12,Home Health Agency/Hospice,2,Home Health Agency,9,,,0.00000000,,,0,0,,100,-122.66221000,38.46462000,Sonoma,097,210.1,Urban,06097152501,1525.01,060971525013003,02,07,06,1,NOR,03,0,0,1,1,0,0,0,0
-123.3464074984666,39.389504955166046,7494,406234015,010000256,31181,75906,4075,3098,41395,ADVENTIST HLTH HOME CARE AND HOSPICE SVCS-MENDO CTY,Adventist Hlth/Home Care Svcs,1712D S Main St,,Willits,CA,95490,4405,,,4,Closed,1,2007/09/09,2007/06/14,Home Health Agency/Hospice,2,Home Health Agency,9,Nonprofit,Nonprofit - Corporation,0.00000000,,,0,0,,0,-123.34642100,39.38951000,Mendocino,045,91,Rural,06045010700,107,060450107006024,02,01,01,1,NOR,01,0,1,0,1,0,0,0,0
-122.73117670680563,38.470864979021506,7495,406494040,010000259,13398,7396,4493,1453,41392,KAISER FOUNDATION HOSPITAL HOME HEALTH-SANTA ROSA,Kaiser Home Hlth,401 Bicentennial Way,,Santa Rosa,CA,95403,,,,4,Closed,1,2004/12/14,2003/08/12,Home Health Agency/Hospice,2,Home Health Agency,9,Nonprofit,Nonprofit - Corporation,0.00000000,,,0,0,,100,-122.73119000,38.47087000,Sonoma,097,210.1,Urban,06097152802,1528.02,060971528023000,02,07,06,1,NOR,03,0,0,1,1,0,0,0,0
-122.72457990698877,38.47642027791229,7496,406494092,010000259,55153,124231,5146,1453,48795,KAISER FOUNDATION HOSPITAL HOME HEALTH -SANTA ROSA,Kaiser Home Hlth,3550 Round Barn Blvd,Ste 112,Santa Rosa,CA,95403,,,,4,Open,2,2009/12/15,2010/01/26,Home Health Agency/Hospice,2,Home Health Agency,9,Nonprofit,Nonprofit - Corporation,0.00000000,,,0,0,,97,-122.72459320,38.47642530,Sonoma,097,210.1,Urban,06097152400,1524,060971524003092,02,07,06,1,NOR,03,0,0,1,1,0,0,0,0
-122.79343369195331,38.5157579801918,7497,406494042,010000262,38892,61488,4494,725,41424,"CRESCENT HEALTHCARE, INC.",Crescent Healthcare,675 Aviation Blvd Ste A,Ste A,Santa Rosa,CA,95403,1025,,,4,Closed,1,2009/04/01,2006/10/05,Home Health Agency/Hospice,2,Home Health Agency,9,,,0.00000000,,,0,0,,0,-122.79344700,38.51576300,Sonoma,097,210.1,Urban,06097152702,1527.02,060971527022011,02,01,06,1,NOR,03,0,0,1,0,0,0,0,0
-122.12886012787149,38.218737555355212,7498,406484017,010000264,55157,135694,4479,1851,41521,ALTAIR PHARMACY & HEALTH SERVICES,Altair Health Svcs,364 Pittman Rd,Ste 9,Fairfield,CA,94534,,,,4,Open,2,1993/08/09,2010/09/02,Home Health Agency/Hospice,2,Home Health Agency,9,,,0.00000000,,,0,0,,100,-122.12887330,38.21874260,Solano,095,203.1,Rural,06095252202,2522.02,060952522021001,05,08,10,1,NOR,03,0,0,1,0,0,0,0,0
-124.19622083098581,41.753046060062836,7499,406084002,010000265,54296,135544,3542,2738,41641,SUTTER COAST HOME CARE,Sutter Coast Home Care,983 3Rd St,,Crescent City,CA,95531,,,,4,Open,2,1993/09/01,2010/09/01,Home Health Agency/Hospice,2,Home Health Agency,9,Nonprofit,Nonprofit - Corporation,0.00000000,,,0,0,,100,-124.19623480,41.75305120,Del Norte,015,19,Rural,06015000101,1.01,060150001011055,04,01,01,1,NOR,01,0,1,0,1,0,0,0,0
-122.28116679391215,38.310134958174203,7500,406074050,010000276,162,6062,3528,1731,42621,"MEDSHARES HOME CARE OF NAPA VALLEY, INC.",Medshares Home Care,575 Lincoln Ave,Ste 240,Napa,CA,94559,,,,4,Closed,1,2001/08/01,2003/08/12,Home Health Agency/Hospice,2,Home Health Agency,9,Investor Owned,Investor - Corporation,0.00000000,,,0,0,,100,-122.28118000,38.31014000,Napa,055,112.1,Urban,06055200503,2005.03,060552005022004,02,07,01,1,NOR,03,0,0,1,1,0,0,0,0
-119.77535635840809,36.823231915224859,7501,206100800,040000152,58069,65935,714,4096,20164,ALZHEIMER'S LIVING CENTER AT ELIM,Alzheimers Living Ctr,668 E Bullard Ave,,Fresno,CA,93710,5401,,,2,Open,2,1966/07/01,2006/12/19,Long Term Care Facility,4,Skilled Nursing Facility,18,,,99.00000000,,,0,0,,0,-119.77536900,36.82323700,Fresno,019,35f,Urban,06019005405,54.05,060190054051011,14,29,19,2,CEN,09,0,0,1,1,0,0,0,0
-119.71844738155023,36.695254924196966,7502,206100806,040000154,55501,1352,715,2200,20153,SUNNYSIDE CONVALESCENT HOSPITAL,Sunnyside Convalescent,2939 S Peach Ave,,Fresno,CA,93725,,,,2,Open,2,1966/10/01,2003/08/12,Long Term Care Facility,4,Skilled Nursing Facility,18,,,107.00000000,,,0,0,,100,-119.71846000,36.69526000,Fresno,019,31,Rural,06019001500,15,060190015002007,16,31,21,2,CEN,09,0,0,1,0,0,0,0,0
-119.73181537526806,36.72638292098901,7503,206100817,040000158,58414,65378,716,2891,20166,TWILIGHT HAVEN,Twilight Haven,1717 S Winery Ave,,Fresno,CA,93727,5011,,,2,Open,2,1961/01/01,2006/12/06,Long Term Care Facility,4,Skilled Nursing Facility,18,,,50.00000000,,,0,0,,0,-119.73182800,36.72638800,Fresno,019,35d,Urban,06019001405,14.05,060190014054004,16,29,21,2,CEN,09,0,0,1,1,0,0,0,0
-119.79095737875537,36.592054937719105,7504,206100818,040000159,30267,1356,717,288,20124,VALLEY CARE AND GUIDANCE CENTER,Valley Care & Guidance Ctr,9919 S Elm Ave,,Fresno,CA,93706,,,,2,Suspense,4,2005/02/09,2003/08/12,Long Term Care Facility,4,Skilled Nursing Facility,18,Investor Owned,Investor - Corporation,78.00000000,,,0,0,,100,-119.79097000,36.59206000,Fresno,019,30,Rural,06019007600,76,060190076004034,16,31,20,2,CEN,09,0,0,1,0,0,0,0,0
-119.80023734833847,36.884154911378623,7505,106204019,040000160,57869,459,243,540,17124,CHILDREN'S HOSPITAL CENTRAL CALIFORNIA,Children's Hospital Central CA,9300 Valley Childrens Pl,,Madera,CA,93638,,,,1,Open,2,1998/08/31,2003/08/12,Hospital,3,General Acute Care Hospital,8,Nonprofit,Nonprofit - Corporation,348.00000000,Emergency - Basic,,0,0,,99,-119.80025000,36.88416000,Madera,039,80,Rural,06039001000,10,060390010003004,14,29,19,2,CEN,09,0,1,1,0,0,1,0,0
-119.73453737312258,36.743064920262199,7506,206100820,040000161,55517,1358,718,3180,22726,VALLEY HEALTH CARE CENTER,Valley Hlthcare Ctr-Fresno,4840 E Tulare Ave,,Fresno,CA,93727,,,,2,Open,2,1970/10/07,2003/08/12,Long Term Care Facility,4,Skilled Nursing Facility,18,,,99.00000000,,,0,0,,100,-119.73455000,36.74307000,Fresno,019,35d,Urban,06019002902,29.02,060190029022010,16,31,20,2,CEN,09,0,0,1,1,0,0,0,0
-120.07764529497491,36.952557922596732,7507,206200831,040000166,55542,65375,1161,3455,20256,WESTGATE MANOR CONVALESCENT HOSPITAL,Westgate Manor Conv,1700 Howard Rd,,Madera,CA,93637,5131,,,2,Open,2,1964/11/16,2006/12/06,Long Term Care Facility,4,Skilled Nursing Facility,18,,,64.00000000,,,0,0,,0,-120.07765800,36.95256300,Madera,039,80,Rural,06039000700,7,060390007006014,12,29,19,2,CEN,09,0,0,1,1,0,0,0,0
-119.4988153735938,37.106616868248246,7508,206100833,040000167,51981,76214,719,5244,20170,WISH-I-AH HEALTHCARE & WELLNESS CENTER,Wish-I-Ah Care Ctr,35680 Wish I Ah Rd,,Auberry,CA,93602,9615,,,2,Open,2,1958/05/13,2007/06/18,Long Term Care Facility,4,Skilled Nursing Facility,18,,,135.00000000,,,0,0,,0,-119.49882800,37.10662200,Fresno,019,31,Rural,06019006401,64.01,060190064011023,14,29,21,2,CEN,09,0,0,1,0,0,0,0,0
-120.62824720162324,36.986804956733295,7509,106240853,040000168,33212,478,255,811,10304,DOS PALOS MEMORIAL HOSPITAL,Dos Palos Memorial,2118 Marguerite St,,Dos Palos,CA,93620,,,,1,Closed,1,2007/10/01,2003/08/12,Hospital,3,General Acute Care Hospital,8,Nonprofit,Nonprofit - Corporation,29.00000000,Emergency - Standby,,0,1,,100,-120.62826000,36.98681000,Merced,047,94,Rural,06047002400,24,060470024005047,12,17,18,2,CEN,06,0,1,1,1,0,0,0,0
-120.75940913986067,37.374757929852507,7510,206240893,040000171,58197,69845,1189,557,20306,"GRACE HOME, INC",Grace Home,13435 Peach Ave,,Livingston,CA,95334,9312,,,2,Open,2,1958/05/20,2007/03/01,Long Term Care Facility,4,Skilled Nursing Facility,18,,,33.00000000,,,0,0,,0,-120.75942200,37.37476300,Merced,047,95,Rural,06047000303,3.03,060470003031016,12,17,18,2,CEN,06,0,1,1,0,0,0,0,0
-119.76498365820942,36.837073113315434,7511,106100899,040000173,58018,122267,58,2623,10155,ST. AGNES MEDICAL CENTER,St Agnes Med Ctr,1303 E Herndon Ave,,Fresno,CA,93720,,,,1,Open,2,1975/03/22,2009/12/29,Hospital,3,General Acute Care Hospital,8,Nonprofit,Nonprofit - Corporation,436.00000000,Emergency - Basic,,0,0,,100,-119.76499630,36.83707820,Fresno,019,35f,Urban,06019005406,54.06,060190054062000,14,29,19,2,CEN,09,0,0,1,1,0,0,0,0
-119.72972126508496,36.829419811267996,7512,406100908,040000174,56607,140204,3551,4527,42789,ST. AGNES HOME HEALTH AND HOSPICE,St Agnes,6499 N Willow Ave,Ste 103,Fresno,CA,93710,,,,4,Open,2,2010/06/05,2010/12/23,Home Health Agency/Hospice,2,Home Health Agency,9,,,0.00000000,,,0,0,,77,-119.72973390,36.82942490,Fresno,019,35b,Urban,06019005605,56.05,060190056051016,14,29,21,2,CEN,09,0,0,1,1,0,0,0,0
-120.47821319014867,37.321607915880271,7513,206240909,040000175,55033,65377,1190,3446,20307,HY-LOND HEALTH CARE CENTER-MERCED,Hy-Lond Conv Hosp,3170 M St,,Merced,CA,95348,2403,,,2,Open,2,1968/10/11,2006/12/06,Long Term Care Facility,4,Skilled Nursing Facility,18,,,121.00000000,,,0,0,,0,-120.47822600,37.32161300,Merced,047,97.1,Urban,06047001004,10.04,060470010041004,12,17,18,2,CEN,06,0,0,1,1,0,0,0,0
-122.29233779101281,38.325167957555713,7514,406284012,010000437,27893,69222,4796,3485,48645,PROFESSIONAL HOME CARE ASSOCIATES - NAPA,Pro Home Care Assoc,3449 Valle Verde Dr Ste C,,Napa,CA,94558,2414,,,4,Closed,1,2007/12/17,2007/02/16,Home Health Agency/Hospice,2,Home Health Agency,9,,,0.00000000,,,0,0,,0,-122.29235100,38.32517300,Napa,055,112.1,Urban,06055200600,2006,060552006003007,02,07,01,1,NOR,03,0,0,1,1,0,0,0,0
-122.27131186002971,37.765178003031416,7515,206010734,020000001,54966,69856,559,4694,22490,CROWN BAY NURSING AND REHABILITATION CENTER,Crown Bay Nursing and Rehab,508 Westline Dr,,Alameda,CA,94501,5847,,,2,Open,2,1969/09/16,2007/03/01,Long Term Care Facility,4,Skilled Nursing Facility,18,,,135.00000000,,,0,0,,0,-122.27132500,37.76518300,Alameda,001,2e,Urban,06001428600,4286,060014286001007,09,16,13,1,CEN,05,0,0,1,1,0,0,0,0
-122.26183685056043,37.855794994692381,7516,206010744,020000006,54925,1053,560,4597,21218,ASHBY CARE CENTER,Ashby Care Ctr,2270 Ashby Ave,,Berkeley,CA,94705,,,,2,Open,2,1963/02/08,2003/08/12,Long Term Care Facility,4,Skilled Nursing Facility,18,,,31.00000000,,,0,0,,100,-122.26185000,37.85580000,Alameda,001,2b,Urban,06001423902,4239.02,060014239022002,09,14,09,1,CEN,05,0,0,1,1,0,0,0,0
-122.14739688329759,37.725754998093841,7517,206010747,020000007,51589,1055,561,5678,21220,BANCROFT CONVALESCENT HOSPITAL,Bancroft Conv,1475 Bancroft Ave,,San Leandro,CA,94577,,,,2,Open,2,1961/07/28,2003/08/12,Long Term Care Facility,4,Skilled Nursing Facility,18,,,36.00000000,,,0,0,,100,-122.14741000,37.72576000,Alameda,001,2h,Urban,06001432600,4326,060014326003005,10,18,13,1,CEN,05,0,0,1,1,0,0,0,0
-122.11434689748998,37.646565001694555,7518,206010748,020000008,26263,1057,562,1336,21221,COURTYARD CARE CENTER,Courtyard Care Ctr,1625 Denton Ave,,Hayward,CA,94545,,,,2,Closed,1,2007/04/14,2003/08/12,Long Term Care Facility,4,Skilled Nursing Facility,18,,,74.00000000,,,0,0,,100,-122.11436000,37.64657000,Alameda,001,2g,Urban,06001437200,4372,060014372001016,10,18,13,1,CEN,05,0,0,1,1,0,0,0,0
-122.11830689404853,37.669295000657286,7519,206010749,020000009,53341,1059,563,2633,21222,"ST. FRANCIS EXTENDED CARE, INC.",St Francis Extended Care,718 Bartlett Ave,,Hayward,CA,94541,,,,2,Open,2,1965/12/09,2003/08/12,Long Term Care Facility,4,Skilled Nursing Facility,18,,,62.00000000,,,0,0,,100,-122.11832000,37.66930000,Alameda,001,2n,Urban,06001436200,4362,060014362002003,10,18,13,1,CEN,05,0,0,1,1,0,0,0,0
-122.05134690279949,37.678784995341701,7520,206010750,020000010,52881,1061,564,4787,21223,HILLTOP CARE CENTER,Hilltop Care Ctr,3269 D St,,Hayward,CA,94541,,,,2,Open,2,1963/05/20,2003/08/12,Long Term Care Facility,4,Skilled Nursing Facility,18,,,71.00000000,,,0,0,,100,-122.05136000,37.67879000,Alameda,001,2n,Urban,06001436401,4364.01,060014364011000,10,20,09,1,CEN,05,0,0,1,1,0,0,0,0
-122.26302085019724,37.855878995433336,7521,206010757,020000011,53179,73773,565,3667,21225,BERKELEY PINES CARE CENTER,Berkeley Pines Care Ctr,2223 Ashby Ave,,Berkeley,CA,94705,1907,,,2,Open,2,1960/03/07,2007/06/04,Long Term Care Facility,4,Skilled Nursing Facility,18,,,36.00000000,,,0,0,,0,-122.26303400,37.85588400,Alameda,001,2b,Urban,06001423601,4236.01,060014239011000,09,14,09,1,CEN,05,0,0,1,1,0,0,0,0
-122.08833689852369,37.672330998312418,7522,206010760,020000013,51594,69833,566,556,22965,BETHESDA HOME,Bethesda Home,22427 Montgomery St,,Hayward,CA,94541,3945,,,2,Open,2,1972/06/12,2007/03/01,Long Term Care Facility,4,Skilled Nursing Facility,18,,,40.00000000,,,0,0,,0,-122.08835000,37.67233600,Alameda,001,2h,Urban,06001435400,4354,060014354003000,10,18,13,1,CEN,05,0,0,1,1,0,0,0,0
-122.09088389458023,37.697467995734392,7523,206010770,020000016,53354,72212,567,3211,21236,VALLEY POINTE NURSING AND REHABILITATION CENTER,Valley Pointe Nursing & Rehab Ctr,20090 Stanton Ave,,Castro Valley,CA,94546,5203,,,2,Open,2,1961/05/15,2007/04/20,Long Term Care Facility,4,Skilled Nursing Facility,18,,,50.00000000,,,0,0,,0,-122.09089700,37.69747300,Alameda,001,2f,Urban,06001430900,4309,060014309002004,10,18,09,1,CEN,05,0,0,1,1,0,0,0,0
-122.08720689627344,37.697322995753176,7524,206010774,020000018,53183,70181,568,4808,21240,CASTRO VALLEY HEALTHCARE AND REHABILITATION CENTER,Castro Valley Hlthcare Ctr,20259 Lake Chabot Rd,,Castro Valley,CA,94546,5307,,,2,Open,2,1960/09/02,2007/03/08,Long Term Care Facility,4,Skilled Nursing Facility,18,,,91.00000000,,,0,0,,0,-122.08722000,37.69732800,Alameda,001,2f,Urban,06001430900,4309,060014309002004,10,18,09,1,CEN,05,0,0,1,1,0,0,0,0
-122.26766685411835,37.817224998849674,7525,206010796,020000024,268,1071,569,1533,21257,DOWLING CONVALESCENT HOSPITAL,Dowling Conv,451 28Th St,,Oakland,CA,94609,,,,2,Suspense,4,2000/10/04,2003/08/12,Long Term Care Facility,4,Skilled Nursing Facility,18,Investor Owned,Investor - Individual,30.00000000,,,0,0,,100,-122.26768000,37.81723000,Alameda,001,2m,Urban,06001401300,4013,060014013003002,09,16,09,1,CEN,05,0,0,1,1,0,0,0,0
-121.9911669283849,37.544325002387708,7526,206010797,020000025,51694,1073,570,1140,21237,FREMONT HEALTHCARE CENTER,Fremont Hlthcare Ctr,39022 Presidio Way,,Fremont,CA,94538,,,,2,Open,2,1968/05/31,2003/08/12,Long Term Care Facility,4,Skilled Nursing Facility,18,,,115.00000000,,,0,0,,100,-121.99118000,37.54433000,Alameda,001,2j,Urban,06001442500,4425,060014425003008,10,20,13,1,CEN,05,0,0,1,1,0,0,0,0
-122.11935089396279,37.668225001406036,7527,206010798,020000026,55573,69832,571,5980,21286,DRIFTWOOD HEALTHCARE CENTER - HAYWARD,Driftwood Hlthcare Ctr,19700 Hesperian Blvd,,Hayward,CA,94541,4704,,,2,Open,2,1968/05/28,2007/03/01,Long Term Care Facility,4,Skilled Nursing Facility,18,,,88.00000000,,,0,0,,0,-122.11936400,37.66823000,Alameda,001,2n,Urban,06001436200,4362,060014362002003,10,18,13,1,CEN,05,0,0,1,1,0,0,0,0
-118.47141733551854,33.98855173070546,7528,406197562,550001498,57612,156106,7290,5847,40162,"HELPING HANDS HOME HEALTH CENTER, INC.",Helping Hands Home Hlth Ctr,1504 Main St,,Venice,CA,90291,,,,4,Open,2,2011/08/28,2011/08/23,Home Health Agency/Hospice,2,Home Health Agency,9,,,0.00000000,,,0,0,,100,-118.47142950,33.98855660,Los Angeles,037,78.2z,Urban,06037273500,2735,060372735004008,28,53,36,3,NLA,11,5,0,1,1,0,0,0,0
-122.06828190826442,37.61768470138913,7529,306014279,550001518,53967,172632,7286,5843,39496,HAYWARD MISSION HILLS DIALYSIS,Hayward Mission Hills Dialysis,1661 Industrial Pkwy W,,Hayward,CA,94544,,,,3,Open,2,2011/03/11,2012/05/24,Clinic,1,Chronic Dialysis Clinic,4,,,0.00000000,,,0,0,,100,-122.06829500,37.61768970,Alameda,001,2n,Urban,06001438202,4382.02,060014382024010,10,18,13,1,CEN,05,0,0,1,1,0,0,0,0
-122.29938954108884,37.89154619470861,7530,406014280,550001547,58337,178819,7287,5844,40159,BLIZE HEALTHCARE,Blize Healthcare,828 San Pablo Ave,Ste. 105,Albany,CA,94706,,,,4,Open,2,2012/07/10,2012/09/24,Home Health Agency/Hospice,2,Home Health Agency,9,,,0.00000000,,,0,0,,100,-122.29940270,37.89155120,Alameda,001,2a,Urban,06001420300,4203,060014203002003,09,14,09,1,CEN,05,0,0,1,1,0,0,0,0
-121.78397021057494,37.970236849905483,7531,306074150,550001561,53979,156064,7285,5102,39495,FRESENIUS MEDICAL CARE DIABLO EAST ANTIOCH,Fresenius Med Care,2163 Country Hills Dr,,Antioch,CA,94509,,,,3,Open,2,2011/05/06,2011/08/22,Clinic,1,Chronic Dialysis Clinic,4,,,0.00000000,,,0,0,,100,-121.78398330,37.97024190,Contra Costa,013,18e,Urban,06013355101,3551.01,060133551011071,07,11,10,1,CEN,05,0,0,1,1,0,0,0,0
-122.04235437769294,37.912365474431716,7532,406074149,550001567,53963,156057,7284,5842,40158,"COMFORT ASSISTING, INC.",Comfort Assisting,112 La Casa Via,,Walnut Creek,CA,94598,,,,4,Open,2,2011/05/09,2011/08/22,Home Health Agency/Hospice,2,Home Health Agency,9,,,0.00000000,,,0,0,,100,-122.04236750,37.91237050,Contra Costa,013,18j,Urban,06013343002,3430.02,060133383021017,07,15,10,1,CEN,05,0,0,1,1,0,0,0,0
-118.98881513051495,35.36835441168666,7533,306154163,550001606,57336,156044,7281,3402,39493,EAST BAKERSFIELD DENTAL CLINIC,East Bakersfield Dental Clinic,1125 E California Ave,,Bakersfield,CA,93307,,,,3,Open,2,2011/06/08,2011/08/22,Clinic,1,Community Clinic,5,Nonprofit,Nonprofit - Corporation,0.00000000,,,0,0,,100,-118.98882750,35.36835940,Kern,029,66b,Urban,06029002200,22,060290015004027,16,30,20,2,MID,09,0,0,1,1,0,0,0,0
-118.26770296392678,34.060776211260588,7534,306197561,550001626,52818,156054,7283,5841,39494,"GALA DIALYSIS, LLC",Gala Dialysis,1666 W 3Rd St,,Los Angeles,CA,90017,,,,3,Open,2,2011/07/20,2011/08/22,Clinic,1,Chronic Dialysis Clinic,4,,,0.00000000,,,0,0,,100,-118.26771510,34.06078110,Los Angeles,037,78.2ffff,Urban,06037209101,2091.01,060372091015002,22,46,34,3,NLA,11,4,0,1,1,0,0,0,0
-121.90499214846109,36.539802385366265,7535,406274081,550001630,52817,156046,7282,5507,40157,AMEDISYS HOME HEALTH - CARMEL,Amedisys Home Health,100 Clock Tower Pl,,Carmel,CA,93923,,,,4,Open,2,2011/07/13,2011/08/22,Home Health Agency/Hospice,2,Home Health Agency,9,,,0.00000000,,,0,0,,97,-121.90500510,36.53980730,Monterey,053,110,Urban,06053011600,116,060530116001013,15,27,17,1,COA,08,0,0,1,1,0,0,0,0
-119.06714602250187,35.313073122014757,7536,406154162,550001631,58455,156042,7280,1978,40156,WALGREENS INFUSION SERVICES,Walgreens Infusion Services,5800 District Blvd,,Bakersfield,CA,93313,,,,4,Open,2,2012/03/26,2011/08/22,Home Health Agency/Hospice,2,Home Health Agency,9,,,0.00000000,,,0,0,,100,-119.06715840,35.31307810,Kern,029,66c,Urban,06029003124,31.24,060290031241002,18,32,22,2,MID,09,0,0,1,1,0,0,0,0
-117.65015661452186,33.502719940714428,7537,406304473,550001632,57293,156100,7289,5846,40161,BRIGHTSTAR OF SAN JUAN CAPISTRANO,Brightstar,27512 Cll Arroyo,,San Juan Capistrano,CA,92675,,,,4,Open,2,2011/05/10,2011/08/23,Home Health Agency/Hospice,2,Home Health Agency,9,,,0.00000000,,,0,0,,100,-117.65016860,33.50272480,Orange,059,115.1,Urban,06059042312,423.12,060590423122025,38,73,44,3,SLA,13,0,0,1,1,0,0,0,0
-117.89337824975973,33.787490222375475,7538,406304472,550001633,55904,156091,7288,5845,40160,"OC HOME HEALTH CARE, INC.",OC HHC,333 City Blvd W,Suite 1719 A/B,Orange,CA,92868,,,,4,Open,2,2011/07/14,2011/08/23,Home Health Agency/Hospice,2,Home Health Agency,9,,,0.00000000,,,0,0,,89,-117.89339030,33.78749510,Orange,059,116r,Urban,06059076102,761.02,060590761022004,33,72,40,3,SLA,13,0,0,1,1,0,0,0,0
-118.24573256100557,34.148127399899458,7539,406197563,550001639,52830,156122,7291,5848,40163,"SAINT NECTARIOS HOSPICE, INC.",Saint Nectarios Hospice,740 E Wilson Ave,,Glendale,CA,91206,,,,4,Open,2,2011/06/24,2011/08/23,Home Health Agency/Hospice,2,Hospice,10,,,0.00000000,,,0,0,,100,-118.24574470,34.14813230,Los Angeles,037,78.2ee,Urban,06037302001,3020.01,060373020012003,21,43,29,3,NLA,11,2,0,1,1,0,0,0,0
-122.36344788374709,40.573639085340858,7540,406454062,550002059,58429,179003,7795,6199,40414,"DOMUS HOME HEALTH SERVICES, LLC","Domus HHSs, LLC",445 Hemsted Dr,,Redding,CA,96002,,,,4,Open,2,2012/09/12,2012/10/08,Home Health Agency/Hospice,2,Home Health Agency,9,,,0.00000000,,,0,0,,100,-122.36346140,40.57364430,Shasta,089,189.2,Urban,06089010300,103,060890103001011,04,02,02,2,NOR,01,0,0,1,1,0,0,0,0
-117.70148089569967,33.619919630040755,7541,406304511,550002060,58428,178995,7794,6198,40413,"STRAIGHT ENTERPRISES, INC",Straight Enterprises,23591 El Toro Rd,,Lake Forest,CA,92630,,,,4,Open,2,2012/08/20,2012/10/08,Home Health Agency/Hospice,2,Home Health Agency,9,,,0.00000000,,,0,0,,100,-117.70149290,33.61992450,Orange,059,115.2d,Urban,06059052411,524.11,060590524111014,33,70,48,3,SLA,13,0,0,1,1,0,0,0,0
-118.08406140131864,33.998444208298615,7542,306197591,550001655,57550,158521,7354,873,39516,ELDORADO COMMUNITY SERVICE CENTER,Eldorado Cmty Svc Ctr,5200 San Gabriel Pl,,Pico Rivera,CA,90660,,,,3,Open,2,2011/08/19,2011/10/21,Clinic,1,Community Clinic,5,Nonprofit,Nonprofit - Corporation,0.00000000,,,0,0,,100,-118.08407350,33.99844910,Los Angeles,037,78.2ww,Urban,06037500900,5009,060375009004004,30,58,38,3,NLA,11,7,0,1,1,0,0,0,0
-118.29157096538493,34.008201919323128,7543,306197596,550001659,57904,158569,7360,3473,39521,ST. JOHN'S WELL CHILD AND FAMILY CENTER,St. John's Well Child And Family Ctr,4131 S Vermont Ave,,Los Angeles,CA,90037,,,,3,Open,2,2011/08/19,2011/10/25,Clinic,1,Community Clinic,5,Nonprofit,Nonprofit - Corporation,0.00000000,,,0,0,,100,-118.29158310,34.00820680,Los Angeles,037,78.2l,Urban,06037231600,2316,060372316001004,26,48,33,3,NLA,11,6,0,1,1,0,0,0,0
-118.19304129105504,33.890453625739667,7544,306197598,550001660,57903,158571,7362,3473,39523,ST. JOHN'S WELL CHILD AND FAMILY CENTER,St. John's Well Child And Family Ctr,15715 S Atlantic Ave,,East Compton,CA,90221,,,,3,Open,2,2011/08/19,2011/10/25,Clinic,1,Community Clinic,5,Nonprofit,Nonprofit - Corporation,0.00000000,,,0,0,,87,-118.19305340,33.89045850,Los Angeles,037,78.2bbb,Urban,06037542102,5421.02,060375421022011,25,52,37,3,SLA,11,6,0,1,1,0,0,0,0
-117.73532235281753,34.090282977984771,7545,306197592,550001666,57448,158522,7355,1790,39517,"MISSION CITY COMMUNITY NETWORK, INC - POMONA",Mission City Cmty Network,831 E Arrow Hwy,,Pomona,CA,91767,,,,3,Open,2,2011/06/13,2011/10/21,Clinic,1,Community Clinic,5,Nonprofit,Nonprofit - Corporation,0.00000000,,,0,0,,100,-117.73533440,34.09028790,Los Angeles,037,78.2ss,Urban,06037402101,4021.01,060374021011005,32,61,38,3,SLA,11,3,0,1,1,0,0,0,0
-118.14671719550071,33.930941119126025,7546,306197597,550001667,57416,158570,7361,106,39522,ALTAMED SENIOR BUENACARE DOWNEY,Altamed Senior Buenacare,12130 Paramount Blvd,,Downey,CA,90242,,,,3,Open,2,2011/08/25,2011/10/25,Clinic,1,Community Clinic,5,Nonprofit,Nonprofit - Corporation,0.00000000,,,0,0,,100,-118.14672930,33.93094600,Los Angeles,037,78.2sss,Urban,06037551201,5512.01,060375515001006,27,50,34,3,NLA,11,7,0,1,1,0,0,0,0
-118.04589420121739,34.076496397436472,7547,306197595,550001668,56408,158567,7359,106,39520,ALTAMED SENIOR BUENACARE EL MONTE,Altamed Senior Buenacare,10418 Valley Blvd,,El Monte,CA,91731,,,,3,Open,2,2011/08/25,2011/10/25,Clinic,1,Community Clinic,5,Nonprofit,Nonprofit - Corporation,0.00000000,,,0,0,,100,-118.04590630,34.07650130,Los Angeles,037,78.2oo,Urban,06037432801,4328.01,060374328012001,24,49,32,3,NLA,11,3,0,1,1,0,0,0,0
-118.19829328665618,33.927811521675203,7548,306197594,550001669,57006,158565,7358,106,39519,ALTAMED SENIOR BUENACARE LYNWOOD,Altamed Senior Buenacare,3820 Martin Luther King Jr Blvd,,Lynwood,CA,90262,,,,3,Open,2,2011/08/25,2011/10/25,Clinic,1,Community Clinic,5,Nonprofit,Nonprofit - Corporation,0.00000000,,,0,0,,100,-118.19830540,33.92781640,Los Angeles,037,78.2ooo,Urban,06037540102,5401.02,060375401021007,27,50,39,3,NLA,11,6,0,1,1,0,0,0,0
-122.34104616863493,37.589913622626462,7549,406414125,550001672,56423,158557,7356,5899,40195,"FARALLON HOME HEALTH CARE, LLC",Farallon HHC,533 Airport Blvd,,Burlingame,CA,94010,,,,4,Open,2,2011/09/07,2011/10/25,Home Health Agency/Hospice,2,Home Health Agency,9,,,0.00000000,,,0,0,,100,-122.34105930,37.58991860,San Mateo,081,176a,Urban,06081605400,6054,060816054005006,08,19,12,1,COA,04,0,0,1,1,0,0,0,0
-118.13712134188374,34.601682444371626,7550,306197593,550001678,53481,158564,7357,2767,39518,TARZANA TREATMENT CENTERS,Tarzana Treatment Ctrs,422 W Ave P,,Palmdale,CA,93551,,,,3,Open,2,2011/09/15,2011/10/25,Clinic,1,Community Clinic,5,Nonprofit,Nonprofit - Corporation,0.00000000,,,0,0,,100,-118.13713350,34.60168740,Los Angeles,037,77.1b,Urban,06037910201,9102.01,060379102011044,17,36,25,3,NLA,11,1,0,1,1,0,0,0,0
-117.18552202221905,33.135481859910158,7551,406374456,550001698,53464,158518,7353,5898,40194,COMPANION HOSPICE AND PALLIATIVE CARE OF NORTH COUNTY LLC,Companion Hospice And Palliative Care,910 W San Marcos Blvd,,San Marcos,CA,92078,,,,4,Open,2,2011/08/12,2011/10/21,Home Health Agency/Hospice,2,Hospice,10,,,0.00000000,,,0,0,,100,-117.18553390,33.13548670,San Diego,073,156e,Urban,06073020009,200.09,060730200091018,38,74,50,3,SOU,14,0,0,1,1,0,0,0,0
-118.16433489100099,33.951418718099191,7552,306197590,550001699,58619,158506,7351,5896,39515,SATELITE DIALYSIS OF SOUTH GATE,Satelite Dialysis,8716 Garfield Ave,,South Gate,CA,90280,,,,3,Open,2,2011/10/04,2011/10/21,Clinic,1,Chronic Dialysis Clinic,4,,,0.00000000,,,0,0,,100,-118.16434700,33.95142360,Los Angeles,037,78.2sss,Urban,06037536102,5361.02,060375361023011,27,50,39,3,NLA,11,7,0,1,1,0,0,0,0
-117.11652605653532,32.815628995216017,7553,406374455,550001704,56068,158509,7352,5897,40193,"SOUTH COAST HOME HEALTH, INC",South Coast Home Hllth,3914 Murphy Canyon Rd,,San Diego,CA,92123,,,,4,Open,2,2011/07/07,2011/10/21,Home Health Agency/Hospice,2,Home Health Agency,9,,,0.00000000,,,0,0,,100,-117.11653790,32.81563380,San Diego,073,161o,Urban,06073008511,85.11,060730085111034,39,76,52,3,SOU,14,0,0,1,1,0,0,0,0
-118.21624378604118,33.903844526158515,7554,306197599,550001664,57902,158572,7363,3473,39524,"ST. JOHN'S WELL CHILD AND FAMILY CENTER, INC - COMPTON",St. John's Well Child And Family Ctr,1112 N Santa Fe Ave,,Compton,CA,90221,,,,3,Open,2,2011/08/17,2011/10/25,Clinic,1,Community Clinic,5,Nonprofit,Nonprofit - Corporation,0.00000000,,,0,0,,100,-118.21625590,33.90384940,Los Angeles,037,78.2bbb,Urban,06037541604,5416.04,060375416043007,25,52,37,3,SLA,11,6,0,1,1,0,0,0,0
-120.84521308169626,37.76574000127664,7555,406504072,,,158573,7364,,40196,"CENTRAL VALLEY HOME HEALTH SERVICES, INC",Central Valley HHSs,210 S Sierra Ave,,Oakdale,CA,95361,,,,4,Under Construction,3,2011/10/25,,Home Health Agency/Hospice,2,,,,,0.00000000,,,0,0,,100,-120.84522600,37.76574510,Stanislaus,099,211,Rural,06099000203,2.03,060990002032005,14,25,19,2,CEN,06,0,1,1,1,0,0,0,0
-122.70705210956378,38.468560177007454,7556,306494119,110000108,54097,160260,7388,533,39530,WOMEN'S HEALTH SPECIALISTS,Women's Hlth Specialists,3317 Chanate Rd,,Santa Rosa,CA,95404,,,,3,Open,2,2011/10/17,2011/11/16,Clinic,1,Community Clinic,5,Nonprofit,Nonprofit - Corporation,0.00000000,,,0,0,,100,-122.70706540,38.46856520,Sonoma,097,210.1,Urban,06097152400,1524,060971524001002,02,07,06,1,NOR,03,0,0,1,1,0,0,0,0
-121.34636917798244,37.981703217857444,7557,406394104,550000173,56603,161113,7391,1976,40216,OPTIMAL HOSPICE CARE -STOCKTON -  BRANCH,Optimal Hospice Care,4568 Feather River Dr,Suite C,Stockton,CA,95219,,,,4,Open,2,2011/10/06,2011/11/18,Home Health Agency/Hospice,2,Hospice,10,,,0.00000000,,,0,0,,100,-121.34638220,37.98170830,San Joaquin,077,169c,Urban,06077003114,31.14,060770031142000,05,26,11,2,CEN,06,0,0,1,1,0,0,0,0
-121.36187339605357,38.6464909610471,7558,406344176,550001702,54107,160293,7390,5917,40215,"ADVANCED HOME HEALTH AND HOSPICE, INC",Advanced Home Hlth And Hospice,4370 Auburn Blvd,,Sacramento,CA,95841,,,,4,Open,2,2011/10/04,2011/11/16,Home Health Agency/Hospice,2,Hospice,10,,,0.00000000,,,0,0,,100,-121.36188650,38.64649610,Sacramento,067,139b,Urban,06067007504,75.04,060670075042004,01,05,03,2,NOR,02,0,0,1,1,0,0,0,0
-121.47544877745274,38.646230170034563,7559,406344175,550001754,56874,160267,7389,5128,40214,"HEALTHY LIVING AT HOME, INC",Healthy Living At Home,4221 Northgate Blvd,,Sacramento,CA,95834,,,,4,Open,2,2011/11/08,2011/11/16,Home Health Agency/Hospice,2,Home Health Agency,9,,,0.00000000,,,0,0,,100,-121.47546190,38.64623530,Sacramento,067,139a,Urban,06067007008,70.08,060670070081063,06,05,05,2,NOR,02,0,0,1,0,0,0,0,0
-117.08374574769458,33.022059368406019,7560,406374457,550001745,54262,161011,7392,5919,40217,"HEALTH ESSENTIALS, LLC",Hlth Essentials,11440 W Bernardo Ct,Suite 310,San Diego,CA,92127,,,,4,Open,2,2011/08/24,2011/11/18,Home Health Agency/Hospice,2,Hospice,10,,,0.00000000,,,0,0,,100,-117.08375760,33.02206420,San Diego,073,161p,Urban,06073017032,170.32,060730170322001,38,75,50,3,SOU,14,0,0,1,0,0,0,0,0
-117.30963199319521,34.500050006575506,7561,106364429,,,157728,7334,,18196,St. Mary Medical Center-Victorville Campus,St. Mary Med Ctr-Victorville Campus,Bear Valley Rd And Main Street,,Victorville,CA,92393,,,,1,Under Construction,3,2011/09/16,2011/09/16,Hospital,3,General Acute Care Hospital,8,,,0.00000000,,,0,0,,100,-117.30964400,34.50005500,San Bernardino,071,145.1a,Urban,06071009903,99.03,060710099035015,17,36,25,3,SOU,12,0,0,1,1,0,0,0,0
-120.61111966754397,37.342213323310332,7562,306244055,240000793,57355,158432,7350,4054,39514,ATWATER DIALYSIS,Atwater Dialysis,1201 Commerce Ave,,Atwater,CA,95301,,,,3,Open,2,2011/08/23,2011/10/19,Clinic,1,Chronic Dialysis Clinic,4,,,0.00000000,,,0,0,,100,-120.61113250,37.34221840,Merced,047,96,Rural,06047000702,7.02,060470007023006,12,17,18,2,CEN,06,0,0,1,1,0,0,0,0
-118.87211915197749,34.18620473071811,7563,406564223,550001833,56087,167599,7387,6017,40213,"CARELINK HOSPICE, INC",Carelink Hospice,187 E Wilbur Rd,Suite 7,Thousand Oaks,CA,91360,,,,4,Open,2,2012/02/01,2012/02/23,Home Health Agency/Hospice,2,Hospice,10,,,0.00000000,,,0,0,,100,-118.87213140,34.18620960,Ventura,111,240b,Urban,06111007000,70,061110068003001,19,37,24,3,MID,10,0,0,1,1,0,0,0,0
-117.87705554248839,33.925841904959711,7564,406304478,060000199,54745,162253,7396,5674,40218,VNA OF ORANGE COUNTY LLC - BRANCH,VNA,60 Pointe Dr,,Brea,CA,92821,,,,4,Open,2,2010/09/29,2011/12/14,Home Health Agency/Hospice,2,Home Health Agency,9,,,0.00000000,,,0,0,,100,-117.87706760,33.92584680,Orange,059,116m,Urban,06059021815,218.15,060590218151068,29,72,42,3,SLA,13,0,0,1,0,0,0,0,0
-123.35149512612095,39.400185604291501,7565,106234038,,,162208,7395,,18198,Frank R. Howard memorial Hospital,Frank R. Howard Mem. Hosp,One Marcela Drive,,Willits,CA,95490,,,,1,Under Construction,3,2011/12/14,2011/12/14,Hospital,3,General Acute Care Hospital,8,,,0.00000000,,,0,0,,100,-123.35150863,39.40019065,Mendocino,045,91,Rural,06045010700,107,060450107006007,02,01,01,1,NOR,01,0,1,0,1,0,0,0,0
-118.39591924865609,33.98163592691715,7566,306197622,960000461,56294,164558,7413,2793,39538,THE CENTER FOR THE PARTIALLY SIGHTED,The Ctr For The Partially Sighted,6101 W Centinela Ave,,Culver City,CA,90230,,,,3,Open,2,2011/02/15,2011/12/29,Clinic,1,Community Clinic,5,Nonprofit,Nonprofit - Corporation,0.00000000,,,0,0,,100,-118.39593140,33.98164080,Los Angeles,037,78.2j,Urban,06037703001,7030.01,060377030015019,26,47,33,3,NLA,11,5,0,1,1,0,0,0,0
-118.13411770036402,33.903233022241366,7567,306197623,960000919,55213,164562,7414,1448,39539,WESLEY HEALTH CENTERS,Wesley Hlth Ctrs,14371 Clark Ave,,Bellflower,CA,90706,,,,3,Open,2,2011/11/18,2011/12/29,Clinic,1,Community Clinic,5,Nonprofit,Nonprofit - Corporation,0.00000000,,,0,0,,100,-118.13412980,33.90323790,Los Angeles,037,78.2m,Urban,06037554001,5540.01,060375540014003,27,50,34,3,SLA,11,7,0,1,1,0,0,0,0
-119.70204017047034,36.81926650991614,7568,406105085,550001622,58330,178792,7433,5972,40241,"SEQUOIA HOME HEALTH, INC.",Sequoia Home Hlth,900 Pollasky Ave,,Clovis,CA,93612,,,,4,Open,2,2012/05/08,2012/09/17,Home Health Agency/Hospice,2,Home Health Agency,9,,,0.00000000,,,0,0,,100,-119.70205280,36.81927160,Fresno,019,35b,Urban,06019005602,56.02,060190056022024,14,29,21,2,CEN,09,0,0,1,1,0,0,0,0
-118.20052352520274,34.670210740103144,7569,206197626,550001741,55564,165298,7434,5973,28222,UNITED CARE NETWORK,United Care Network,3850 Pelona Vista Dr,,Lancaster,CA,93536,,,,2,Open,2,2011/09/13,2012/01/23,Long Term Care Facility,4,Congregate Living Health Facility,6,,,6.00000000,,,0,0,,100,-118.20053570,34.67021570,Los Angeles,037,77.1b,Urban,06037901006,9010.06,060379010061009,17,36,22,3,NLA,11,1,0,1,1,0,0,0,0
-118.2903298583381,34.095598009266283,7570,306197653,550001824,56302,168470,7512,4908,39570,QUEENS CARE FAMILY CLINICS - MOBILE DENTAL VAN 2,Queenscare Family Clinics,4618 Fountain Ave,,Los Angeles,CA,90029,,,,3,Open,2,2012/02/01,2012/03/05,Clinic,1,Community Clinic,5,Nonprofit,Nonprofit - Corporation,0.00000000,,,0,0,,100,-118.29034200,34.09560290,Los Angeles,037,78.2g,Urban,06037191300,1913,060371913002006,26,45,31,3,NLA,11,4,0,1,1,0,0,0,0
-118.2903298583381,34.095598009266283,7571,306197654,550001825,56303,168471,7513,4908,39571,QUEENSCARE FAMILY CLINICS - MOBILE DENTAL VAN 4,Queenscare Family Clinics,4618 Fountain Ave,,Los Angeles,CA,90029,,,,3,Open,2,2012/02/01,2012/03/05,Clinic,1,Community Clinic,5,Nonprofit,Nonprofit - Corporation,0.00000000,,,0,0,,100,-118.29034200,34.09560290,Los Angeles,037,78.2g,Urban,06037191300,1913,060371913002006,26,45,31,3,NLA,11,4,0,1,1,0,0,0,0
-118.3959158316826,34.186999104004272,7572,306197652,550001835,56301,168485,7511,6030,39569,ALL CARE ONE COMMUNITY HEALTH CENTER,All Care One Cmty Hlth Ctr,6400 Laurel Canyon Blvd,Ste 610,North Hollywood,CA,91606,,,,3,Open,2,2012/02/10,2012/03/06,Clinic,1,Community Clinic,5,Nonprofit,Nonprofit - Corporation,0.00000000,,,0,0,A,98,-118.39592800,34.18700400,Los Angeles,037,78.2bb,Urban,06037123900,1239,060371239004004,20,43,28,3,NLA,11,2,0,1,1,0,0,0,0
-117.7345579534025,34.090282978361714,7573,306197651,550001836,56300,168467,7510,6015,39568,"MISSION CITY COMMUNITY NETWORK, INC. - POMONA MOBILE CLINIC",Mission City Cmty Network,845 E Arrow Hwy,,Pomona,CA,91767,,,,3,Open,2,2012/02/08,2012/03/05,Clinic,1,Community Clinic,5,Nonprofit,Nonprofit - Corporation,0.00000000,,,0,0,,100,-117.73457000,34.09028790,Los Angeles,037,78.2ss,Urban,06037402101,4021.01,060374021011005,32,61,38,3,SLA,11,3,0,1,1,0,0,0,0
-117.95864203931248,33.781069126260903,7574,306304489,550001838,57288,168459,7508,4956,39567,"CENTRAL CITY COMMUNITY HEALTH CENTER, INC.",Central City Cmty Hlth Ctr,12511 Brookhurst St,,Garden Grove,CA,92840,,,,3,Open,2,2011/11/16,2012/03/05,Clinic,1,Community Clinic,5,Nonprofit,Nonprofit - Corporation,0.00000000,,,0,0,,100,-117.95865410,33.78107400,Orange,059,116r,Urban,06059088701,887.01,060590887014000,34,68,47,3,SLA,13,0,0,1,1,0,0,0,0
-118.04321422261816,33.802922628095295,7575,406304490,550001847,56299,168460,7509,6029,40277,ADVANCED NURSES PLUS HOME HEALTH,Advanced Nurses Plus Home Hlth,5122 Katella Ave,,Los Alamitos,CA,90720,,,,4,Open,2,2012/01/30,2012/03/05,Home Health Agency/Hospice,2,Home Health Agency,9,,,0.00000000,,,0,0,,100,-118.04322630,33.80292750,Orange,059,116e,Urban,06059110015,1100.15,060591101131033,35,67,40,3,SLA,13,0,0,1,1,0,0,0,0
-118.36006333999197,34.172139303796499,7576,406197655,550001433,57234,168570,7514,6031,40278,"TAPO HOSPICE CARE, LLC","Tapo Hospice Care, LLC",10523 Burbank Blvd,,North Hollywood,CA,91601,,,,4,Open,2,2010/11/05,2012/03/12,Home Health Agency/Hospice,2,Hospice,10,,,0.00000000,,,0,0,,100,-118.36007550,34.17214420,Los Angeles,037,78.2bb,Urban,06037125310,1253.10,060371243001008,20,43,27,3,NLA,11,2,0,1,1,0,0,0,0
-118.09086930993944,33.86520972415677,7577,406197657,550001689,56360,168626,7516,6002,40280,"HEART TO HEART CARE, INC.",Heart to Heart Care,18330 Gridley Rd,Ste H,Cerritos,CA,90701,,,,4,Open,2,2011/06/10,2012/03/13,Home Health Agency/Hospice,2,Hospice,10,,,0.00000000,,,0,0,,79,-118.09088140,33.86521460,Los Angeles,037,78.2rrr,Urban,06037554900,5549,060375549004009,27,56,39,3,SLA,11,7,0,1,1,0,0,0,0
-118.83118676211056,34.154580132935735,7578,406197656,550001852,56359,168612,7515,6033,40279,OAKHURST HOSPICE,Oakhurst Hospice,860 Hampshire Rd,Ste R,Westlake Village,CA,91361,,,,4,Open,2,2012/03/01,2012/03/13,Home Health Agency/Hospice,2,Hospice,10,,,0.00000000,,,0,0,A,94,-118.83119900,34.15458500,Ventura,111,240b,Urban,06111005906,59.06,061110059062020,19,37,24,3,MID,10,0,0,1,1,0,0,0,0
-121.93989466027405,37.326115516578653,7579,306434234,550001941,57743,175188,7728,5928,39623,INDIAN HEALTH CENTER OF SANTA CLARA VALLEY,Indian Hlth Ctr,455 Oconnor Dr,,San Jose,CA,95128,,,,3,Open,2,2012/06/25,2012/08/15,Clinic,1,Community Clinic,5,Nonprofit,Nonprofit - Corporation,0.00000000,,,0,0,,100,-121.93990770,37.32612050,Santa Clara,085,183j,Urban,06085502001,5020.01,060855020012007,13,24,16,1,COA,07,0,0,1,1,0,0,0,0
-118.39649483328265,34.184558904681154,7580,406197687,550001945,57739,175168,7724,6131,40366,"PROMED CARE HOME HEALTH, INC.",Promed Care Home Hlth,6260 Laurel Canyon Blvd,,North Hollywood,CA,91606,,,,4,Open,2,2012/05/23,2012/08/15,Home Health Agency/Hospice,2,Home Health Agency,9,,,0.00000000,,,0,0,,100,-118.39650700,34.18456380,Los Angeles,037,78.2bb,Urban,06037123800,1238,060371238001012,20,43,28,3,NLA,11,2,0,1,1,0,0,0,0
-118.37278873813371,34.161860005638154,7581,406197688,550001947,57740,175176,7725,6132,40367,"ANGEL'S SMILE HOSPICE, INC.",Angel's Smile Hospice,5032 Lankershim Blvd,,North Hollywood,CA,91601,,,,4,Open,2,2012/04/13,2012/08/15,Home Health Agency/Hospice,2,Hospice,10,,,0.00000000,,,0,0,,100,-118.37280090,34.16186490,Los Angeles,037,78.2ttt,Urban,06037125400,1254,060371254001011,21,43,28,3,NLA,11,2,0,1,1,0,0,0,0
-121.87534136805463,37.343454411092679,7582,306434235,550001949,57744,175190,7729,6136,39624,GARDNER DOWNTOWN HEALTH CENTER,Gardner Downtown Hlth Ctr,725 E Santa Clara St,,San Jose,CA,95112,,,,3,Open,2,2012/05/18,2012/08/15,Clinic,1,Community Clinic,5,Nonprofit,Nonprofit - Corporation,0.00000000,,,0,0,,100,-121.87535440,37.34345940,Santa Clara,085,183j,Urban,06085501200,5012,060855013001001,13,23,16,1,COA,07,0,0,1,1,0,0,0,0
-118.67628287775509,34.271694210564732,7583,406564231,550001954,57730,175117,7714,6120,40357,"CITY OF DREAMS HOME HEALTH CARE, INC.",City of Dreams HHC,5924 E Los Angeles Ave,,Simi Valley,CA,93063,,,,4,Open,2,2012/05/03,2012/08/15,Home Health Agency/Hospice,2,Home Health Agency,9,,,0.00000000,,,0,0,,100,-118.67629510,34.27169910,Ventura,111,240a,Urban,06111008303,83.03,061110083031000,19,38,24,3,MID,10,0,0,1,1,0,0,0,0
-121.40152449262854,38.618935766413635,7584,406344184,550001955,57726,175109,7710,6116,40356,INTERIM HEALTHCARE HOSPICE,Interim Hlthcare Hospice,2929 Fulton Ave,,Sacramento,CA,95821,,,,4,Open,2,2012/06/15,2012/08/15,Home Health Agency/Hospice,2,Hospice,10,,,0.00000000,,,0,0,,100,-121.40153760,38.61894090,Sacramento,067,139j,Urban,06067006201,62.01,060670062012012,06,05,05,2,NOR,02,0,0,1,1,0,0,0,0
-121.60502328132765,36.681976152154959,7585,306274084,550001957,57742,175186,7727,6134,39622,SPLG-COMMUNITY ORAL HEALTH SERVICES (MOBILE 3),SPLG-Cmty Oral Hlth Svcs (Mobile 3),1440 Del Monte Ave,,Salinas,CA,93905,,,,3,Open,2,2012/06/06,2012/08/15,Clinic,1,Community Clinic,5,Nonprofit,Nonprofit - Corporation,0.00000000,,,0,0,,100,-121.60503620,36.68198110,Monterey,053,109.2,Urban,06053000700,7,060530007001026,12,28,17,1,COA,08,0,0,1,1,0,0,0,0
-117.56123169799919,33.90902458911242,7586,306334643,550001963,57727,175111,7711,6117,39618,CENTRAL CITY COMMUNITY HEALTH CENTER,Central City Cmty Hlth Ctr,1860 Hamner Ave,,Norco,CA,92860,,,,3,Open,2,2012/06/15,2012/08/15,Clinic,1,Community Clinic,5,Nonprofit,Nonprofit - Corporation,0.00000000,,,0,0,,100,-117.56124370,33.90902950,Riverside,065,135e,Urban,06065040804,408.04,060650408033009,37,71,44,3,SOU,12,0,0,1,1,0,0,0,0
-121.97738745576808,37.309019421619375,7587,406434236,550001965,57745,175192,7730,6137,40369,WEST HAVEN HOME HEALTH,West Haven Home Hlth,960 Saratoga Ave,,San Jose,CA,95129,,,,4,Open,2,2012/06/21,2012/08/15,Home Health Agency/Hospice,2,Home Health Agency,9,,,0.00000000,,,0,0,,100,-121.97740050,37.30902440,Santa Clara,085,183n,Urban,06085506304,5063.04,060855063042010,13,22,15,1,COA,07,0,0,1,1,0,0,0,0
-117.67501390261853,33.593740332039921,7588,406304506,550001966,57733,175129,7717,6123,40359,"LAGUNA HOME HEALTH SERVICES, INC.",Laguna HHSs,25401 Cabot Rd,,Laguna Hills,CA,92653,,,,4,Open,2,2012/05/02,2012/08/15,Home Health Agency/Hospice,2,Home Health Agency,9,,,0.00000000,,,0,0,,100,-117.67502590,33.59374520,Orange,059,115.2c,Urban,06059042327,423.27,060590423271000,33,73,48,3,SLA,13,0,0,1,1,0,0,0,0
-117.73297518981565,33.629110630741309,7589,406304505,550001967,57732,175127,7716,6122,40358,CARE PLUS HOSPICE,Care Plus Hospice,22931 Triton Way,,Laguna Hills,CA,92653,,,,4,Open,2,2012/05/04,2012/08/15,Home Health Agency/Hospice,2,Hospice,10,,,0.00000000,,,0,0,,100,-117.73298720,33.62911550,Orange,059,115.2d,Urban,06059062621,626.21,060590626211001,33,73,48,3,SLA,13,0,0,1,1,0,0,0,0
-118.33514315584743,34.022905819076115,7590,306197674,550001971,57632,174629,7690,5099,39612,CRENSHAW COMMUNITY CLINIC`,Crenshaw Cmty Clinic`,3631 Crenshaw Blvd,,Los Angeles,CA,90016,,,,3,Open,2,2012/06/26,2012/08/10,Clinic,1,Community Clinic,5,Nonprofit,Nonprofit - Corporation,0.00000000,,,0,0,,100,-118.33515530,34.02291070,Los Angeles,037,78.2nnn,Urban,06037219300,2193,060372200002010,26,47,33,3,NLA,11,6,0,1,1,0,0,0,0
-120.41018433584397,34.952831741008481,7591,306424084,550001978,57729,175115,7713,6119,39620,COASTAL VALLEY HEALTH CENTER,Coastal Valley Hlth Ctr,1510 E Main St,,Santa Maria,CA,93454,,,,3,Open,2,2012/06/27,2012/08/15,Clinic,1,Community Clinic,5,Nonprofit,Nonprofit - Corporation,0.00000000,,,0,0,,100,-120.41019690,34.95283660,Santa Barbara,083,180.1,Urban,06083002211,22.11,060830022113015,15,33,23,3,MID,10,0,0,1,1,0,0,0,0
-117.87422266698255,33.612716041347198,7592,406304504,550001981,57724,175103,7708,6114,40354,"NEWPORT NURSES, INC.",Newport Nurses,260 Newport Center Dr,,Newport Beach,CA,92660,,,,4,Open,2,2012/06/28,2012/08/15,Home Health Agency/Hospice,2,Home Health Agency,9,,,0.00000000,,,0,0,,100,-117.87423470,33.61272090,Orange,059,116d,Urban,06059063008,630.08,060590630089008,35,70,48,3,SLA,13,0,0,1,1,0,0,0,0
-118.89905384153012,34.269131223554901,7593,306564230,550001982,57728,175113,7712,585,39619,"CLINICAS DEL CAMINO REAL, INC. - MOORPARK",Clinicas Del Camino Real,4279 Tierra Rejada Rd,,Moorpark,CA,93021,,,,3,Open,2,2012/07/03,2012/08/15,Clinic,1,Community Clinic,5,Nonprofit,Nonprofit - Corporation,0.00000000,,,0,0,,100,-118.89906610,34.26913610,Ventura,111,239,Urban,06111007607,76.07,061110076081000,19,37,24,3,MID,10,0,0,1,1,0,0,0,0
-117.121499350223,32.894985185944854,7594,406374468,550001984,57725,175107,7709,4100,40355,ADVANTAGE HEALTH SYSTEMS,Advantage Hlth Sys,9663 Tierra Grande St,,San Diego,CA,92126,,,,4,Open,2,2012/06/20,2012/08/15,Home Health Agency/Hospice,2,Hospice,10,,,0.00000000,,,0,0,,100,-117.12151120,32.89499000,San Diego,073,161v,Urban,06073008360,83.60,060730083602008,39,75,50,3,SOU,14,0,0,1,1,0,0,0,0
-118.30616694850706,34.169558200896425,7595,406197686,,,175166,7723,,40365,CALIFORNIA HOSPICE CORP,California Hospice Corp,905 S Lake St,,Burbank,CA,91502,,,,4,Under Construction,3,2012/08/15,2012/08/15,Home Health Agency/Hospice,2,,,,,0.00000000,,,0,0,,100,-118.30617910,34.16956310,Los Angeles,037,78.2ttt,Urban,06037311800,3118,060373118004019,21,43,29,3,NLA,11,2,0,1,1,0,0,0,0
-118.39653983450187,34.166806306704181,7596,406197700,,,175227,7744,,40383,"PRIORITY HOSPICE CARE, INC.",Priority Hospice Care,5301 Laurel Canyon Blvd,,Valley Village,CA,91607,,,,4,Under Construction,3,2012/08/16,2012/08/16,Home Health Agency/Hospice,2,,,,,0.00000000,,,0,0,,100,-118.39655200,34.16681120,Los Angeles,037,78.2jj,Urban,06037124901,1249.01,060371249012008,21,42,28,3,NLA,11,2,0,1,1,0,0,0,0
-119.5628161657751,36.098010272787114,7597,306164032,550001882,58016,177856,7782,2911,39635,UNITED HEALTH CENTERS OF THE SAN JOAQUIN VALLEY,United Health Ctrs,1209 Whitley Ave,,Corcoran,CA,93212,,,,3,Open,2,2012/09/07,2012/09/06,Clinic,1,Community Clinic,5,Nonprofit,Nonprofit - Corporation,0.00000000,,,0,0,,100,-119.56282870,36.09801530,Kings,031,68,Rural,06031001400,14,060310014003002,16,30,20,2,MID,09,0,1,1,1,0,0,0,0
-121.31522568162102,37.989230514844607,7598,306394110,030000211,58500,179182,7802,2104,39646,PLANNED PARENTHOOD,Planned Parenthood,4555 Precissi Ln,,Stockton,CA,95207,,,,3,Open,2,2012/06/25,2012/10/12,Clinic,1,Community Clinic,5,Nonprofit,Nonprofit - Corporation,0.00000000,,,0,0,,100,-121.31523870,37.98923560,San Joaquin,077,169a,Urban,06077003113,31.13,060770031131003,05,26,11,2,CEN,06,0,0,1,1,0,0,0,0
-121.41549999536861,38.586155469993081,7599,306344187,550000728,58501,179183,7803,4822,39647,ALTERNATIVES PREGNANCY RESOURCE CENTER,Alternatives Pregnancy Resource Ctr,1111 Howe Ave,,Sacramento,CA,95825,,,,3,Open,2,2012/09/12,2012/10/12,Clinic,1,Free Clinic,7,Nonprofit,Nonprofit - Corporation,0.00000000,,,0,0,,100,-121.41551310,38.58616060,Sacramento,067,139j,Urban,06067005402,54.02,060670054021007,06,09,05,2,NOR,02,0,0,1,1,0,0,0,0
-121.90297755736405,37.407306308016054,7600,406434241,550002033,58498,179164,7800,6206,40416,"MEDICS CHOICE HOME HEALTH, INC",Medics Choice Home Hlth,1613 S Main St,,Milpitas,CA,95035,,,,4,Open,2,2012/08/29,2012/10/12,Home Health Agency/Hospice,2,Home Health Agency,9,,,0.00000000,,,0,0,,100,-121.90299060,37.40731130,Santa Clara,085,183o,Urban,06085504505,5045.05,060855045051015,10,20,15,1,COA,07,0,0,1,1,0,0,0,0
-121.28683408935606,37.968654013838318,7601,306394108,550002047,58494,179151,7796,6166,39643,SATELLITE DIALYSIS,Satellite Dialysis,590 E Harding Way,,Stockton,CA,95204,,,,3,Open,2,2012/09/13,2012/10/12,Clinic,1,Chronic Dialysis Clinic,4,,,0.00000000,,,0,0,,100,-121.28684710,37.96865910,San Joaquin,077,169b,Urban,06077000402,4.02,060770004025000,05,17,18,2,CEN,06,0,0,1,1,0,0,0,0
-121.94846526012168,37.316070119324309,7602,406434242,550002050,58499,179172,7801,6207,40417,QUALITY CLINICIANS CARE HOME HEALTH SERVICES LLC,Quality Clinicians Care HHSs LLC,3033 Moorpark Ave,,San Jose,CA,95128,,,,4,Open,2,2012/09/12,2012/10/12,Home Health Agency/Hospice,2,Home Health Agency,9,,,0.00000000,,,0,0,,100,-121.94847830,37.31607510,Santa Clara,085,183n,Urban,06085506401,5064.01,060855064011012,13,24,15,1,COA,07,0,0,1,1,0,0,0,0
-121.28587177092493,38.121170001057635,7603,306394109,550002052,58496,179160,7798,6204,39644,LODI MEMORIAL SURGICAL GROUP,Lodi Memorial Surgical Group,999 S Fairmont Ave,,Lodi,CA,95240,,,,3,Open,2,2012/09/18,2012/10/12,Clinic,1,Community Clinic,5,Nonprofit,Nonprofit - Corporation,0.00000000,,,0,0,,100,-121.28588480,38.12117510,San Joaquin,077,166,Urban,06077004302,43.02,060770043023002,14,10,11,2,CEN,06,0,0,1,1,0,0,0,0
-121.41739749684105,38.570264471695836,7604,406344185,550002053,58495,179153,7797,6203,40415,BLOSSOM RIDGE HOME HEALTH AGENCY,Blossom Ridge Home Hlth Agency,777 Campus Commons Rd,,Sacramento,CA,95825,,,,4,Open,2,2012/09/12,2012/10/12,Home Health Agency/Hospice,2,Home Health Agency,9,,,0.00000000,,,0,0,,100,-121.41741060,38.57026960,Sacramento,067,139d,Urban,06067005403,54.03,060670054031004,06,05,05,2,NOR,02,0,0,1,1,0,0,0,0
-121.45975558654878,38.595445472776959,7605,306344186,550002055,58497,179162,7799,6205,39645,NORTH SACRAMENTO DIALYSIS,North Sacramento Dialysis,251 Lathrop Way,,Sacramento,CA,95815,,,,3,Open,2,2012/09/24,2012/10/12,Clinic,1,Chronic Dialysis Clinic,4,,,0.00000000,,,0,0,,100,-121.45976870,38.59545060,Sacramento,067,139j,Urban,06067006900,69,060670069002005,06,09,05,2,NOR,02,0,0,1,1,0,0,0,0
-118.45022032286883,34.186654307389119,7606,406197604,550001706,57255,159583,7370,5909,40202,"ACTIVE PLUS HOME HEALTH CARE, INC",Active Plus HHC,14540 Victory Blvd,,Van Nuys,CA,91411,,,,4,Open,2,2011/09/16,2011/11/04,Home Health Agency/Hospice,2,Home Health Agency,9,,,0.00000000,,,0,0,,100,-118.45023250,34.18665920,Los Angeles,037,78.2cc,Urban,06037127802,1278.02,060371278021010,20,40,28,3,NLA,11,2,0,1,1,0,0,0,0
-118.30314524855861,34.171437800894516,7607,406197602,550001707,57237,159566,7368,5907,40200,"TOTAL CARE HOME HEALTH CARE, INC",Total Care HHC,105 W Alameda Ave,,Burbank,CA,91502,,,,4,Open,2,2011/09/16,2011/11/04,Home Health Agency/Hospice,2,Home Health Agency,9,,,0.00000000,,,0,0,,100,-118.30315740,34.17144270,Los Angeles,037,78.2ttt,Urban,06037310703,3107.03,060373107032011,21,43,29,3,NLA,11,2,0,1,1,0,0,0,0
-118.24226117956464,33.924618924949087,7608,306197608,550001732,53925,159607,7374,4174,39525,APLA DENTAL SERVICES - S MARK TAPER CENTER,Apla Dental Svcs,1741 E 120Th St,,Los Angeles,CA,90059,,,,3,Open,2,2011/10/05,2011/11/04,Clinic,1,Community Clinic,5,Nonprofit,Nonprofit - Corporation,0.00000000,,,0,0,,100,-118.24227330,33.92462380,Los Angeles,037,78.2aaa,Urban,06037540700,5407,060375407002002,25,52,37,3,SLA,11,6,0,1,1,0,0,0,0
-118.99544312898335,35.374038110769661,7609,306154164,550001733,54000,159824,7379,873,39528,BAKERSFIELD HEALTH SERVICES,Bakersfield Hlth Svcs,609 E 18Th St,,Bakersfield,CA,93305,,,,3,Open,2,2011/09/20,2011/11/08,Clinic,1,Community Clinic,5,Nonprofit,Nonprofit - Corporation,0.00000000,,,0,0,,100,-118.99545550,35.37404310,Kern,029,66b,Urban,06029001500,15,060290015001009,16,30,20,2,MID,09,0,0,1,1,0,0,0,0
-118.46615632159786,34.172777809656765,7610,406197610,550001737,57256,159633,7376,5913,40206,"DEVOTED NURSES HOME HEALTH CARE, INC",Devoted Nurses HHC,5627 Sepulveda Blvd,,Van Nuys,CA,91411,,,,4,Open,2,2011/09/15,2011/11/07,Home Health Agency/Hospice,2,Home Health Agency,9,,,0.00000000,,,0,0,,100,-118.46616850,34.17278270,Los Angeles,037,78.2ii,Urban,06037128400,1284,060371284004008,21,40,27,3,NLA,11,2,0,1,1,0,0,0,0
-119.87908064290809,36.808087923232847,7611,306105091,,,178783,7786,,39638,FRESNO DIALYSIS,Fresno Dialysis,4753 W Shaw Ave,,Fresno,CA,93722,,,,3,Under Construction,3,2012/09/14,2012/09/14,Clinic,1,,,,,0.00000000,,,0,0,,100,-119.87909330,36.80809300,Fresno,019,29,Rural,06019004207,42.07,060190042072023,14,31,19,2,CEN,09,0,0,1,1,0,0,0,0
-121.69423582845302,37.931916746819013,7612,406074154,550002030,58419,178962,7793,6197,40412,AMERICAN HOSPICE AND HOME HEALTH CARE SERVICES INC.,American Hospice And HHC Svcs.,613 1St St,,Brentwood,CA,94513,,,,4,Open,2,2012/08/22,2012/09/28,Home Health Agency/Hospice,2,Home Health Agency,9,,,0.00000000,,,0,0,,100,-121.69424890,37.93192180,Contra Costa,013,17,Rural,06013303100,3031,060133031002043,07,15,11,1,CEN,05,0,0,1,1,0,0,0,0
-121.69423582845302,37.931916746819013,7613,406074153,550002031,58418,178960,7792,6197,40411,AMERICAN HOSPICE AND HEALTH CARE SERVICES INC.,American Hospice And Hlth Care Svcs.,613 1St St,,Brentwood,CA,94513,,,,4,Open,2,2012/08/22,2012/09/28,Home Health Agency/Hospice,2,Hospice,10,,,0.00000000,,,0,0,,100,-121.69424890,37.93192180,Contra Costa,013,17,Rural,06013303100,3031,060133031002043,07,15,11,1,CEN,05,0,0,1,1,0,0,0,0
-117.8442769632282,33.73425712462614,7614,306304510,550002046,58417,178964,7791,6196,39642,COMMUNITY OUTREACH MEDICAL SERVICES,Cmty Outreach Medical Svcs,1701 E Mcfadden Ave,,Santa Ana,CA,92705,,,,3,Open,2,2012/08/03,2012/09/28,Clinic,1,Community Clinic,5,Nonprofit,Nonprofit - Corporation,0.00000000,,,0,0,A,100,-117.84428900,33.73426200,Orange,059,116g,Urban,06059074407,744.07,060590744071003,34,69,47,3,SLA,13,0,0,1,1,0,0,0,0
-118.51972890454296,34.265785703138057,7615,406197582,550001616,57693,157065,7323,5868,40178,"THE CARING CONNECTION, INC.",The Caring Connection,10727 White Oak Ave,,Granada Hills,CA,91344,,,,4,Open,2,2011/05/25,2011/09/08,Home Health Agency/Hospice,2,Home Health Agency,9,,,0.00000000,,,0,0,,100,-118.51974110,34.26579060,Los Angeles,037,78.2hh,Urban,06037111202,1112.02,060371112023025,17,38,27,3,NLA,11,2,0,1,1,0,0,0,0
-119.7267984725102,36.768023116728898,7616,406105082,550001653,55232,157074,7324,5869,40179,"FRESNO YOSEMITE HEALTH CARE, INC.",Fresno Yosemite Hlth Care,1951 N Gateway Blvd,Suite 103,Fresno,CA,93727,,,,4,Open,2,2011/08/16,2011/09/08,Home Health Agency/Hospice,2,Home Health Agency,9,,,0.00000000,,,0,0,,100,-119.72681110,36.76802820,Fresno,019,35b,Urban,06019003101,31.01,060190031013013,14,29,21,2,CEN,09,0,0,1,1,0,0,0,0
-118.25272026975681,34.025594713639457,7617,306197581,550001520,56413,158221,7317,5890,39503,UNIVERSAL COMMUNITY HEALTH CENTER,Universal Cmty Hlth Ctr,1005 E Washington Blvd,Suite A,Los Angeles,CA,90021,,,,3,Open,2,2011/09/30,2011/10/17,Clinic,1,Community Clinic,5,Nonprofit,Nonprofit - Corporation,0.00000000,,,0,0,,100,-118.25273240,34.02559960,Los Angeles,037,78.2mmm,Urban,06037226000,2260,060372260007016,22,46,31,3,NLA,11,4,0,1,1,0,0,0,0
-118.25004926112885,34.14581610086578,7618,406197588,550001661,53070,157407,7333,5880,40186,"GLENDALE HEALTH SERVICES, INC",Glendale Hlth Svcs,126 S Jackson St,,Glendale,CA,91205,,,,4,Open,2,2011/06/24,2011/09/14,Home Health Agency/Hospice,2,Hospice,10,,,0.00000000,,,0,0,,100,-118.25006140,34.14582100,Los Angeles,037,78.2ff,Urban,06037302201,3022.01,060373022013001,21,43,29,3,NLA,11,2,0,1,1,0,0,0,0
-118.32757984267121,34.200135198756975,7619,406197587,550001663,56363,168634,7332,5879,40185,"AMERICO HOSPICE CARE, INC",Americo Hospice Care,444 Irving Dr,Ste 102,Burbank,CA,91504,,,,4,Open,2,2011/11/17,2012/03/13,Home Health Agency/Hospice,2,Hospice,10,,,0.00000000,,,0,0,,100,-118.32759200,34.20014010,Los Angeles,037,78.2ttt,Urban,06037310400,3104,060373104001010,21,43,29,3,NLA,11,2,0,1,1,0,0,0,0
-122.4576702285014,37.781253415423926,7620,306384222,220000367,56990,158239,7348,1360,39512,LIFEWAYS PACE AT THE CORONET,Lifeways Pace At The Coronet,3575 Geary Blvd,,San Francisco,CA,94118,,,,3,Open,2,2011/04/21,2011/10/17,Clinic,1,Community Clinic,5,Nonprofit,Nonprofit - Corporation,0.00000000,,,0,0,,100,-122.45768340,37.78125840,San Francisco,075,162h,Urban,06075015600,156,060750156003000,08,12,08,1,COA,04,0,0,1,1,0,0,0,0
-119.35131367936827,36.324810236326762,7621,306544085,240000792,55606,158236,7347,5137,39511,VISALIA DIALYSIS,Visalia Dialysis,5429 W Cypress Ave,,Visalia,CA,93277,,,,3,Open,2,2011/06/22,2011/10/17,Clinic,1,Chronic Dialysis Clinic,4,,,0.00000000,,,0,0,,100,-119.35132620,36.32481530,Tulare,107,233,Urban,06107002009,20.09,061070020091000,18,34,21,2,MID,09,0,0,1,1,0,0,0,0
-122.65991864171836,38.268838790289514,7622,306494118,550000039,56073,158241,7349,2079,39513,PETALUMA HEALTH CENTER DENTAL CLINIC,Petaluma Hlth Ctr Dental Clinic,1179 N Mcdowell Blvd,,Petaluma,CA,94954,,,,3,Open,2,2011/06/08,2011/10/17,Clinic,1,Community Clinic,5,Nonprofit,Nonprofit - Corporation,0.00000000,,,0,0,,100,-122.65993190,38.26884380,Sonoma,097,209.1,Urban,06097150605,1506.05,060971506057005,03,06,06,1,NOR,03,0,0,1,1,0,0,0,0
-117.8088329571227,33.888610005046594,7623,306304476,550001734,53267,158223,7345,3817,39509,"BIRTH CHOICE PREGNANCY CENTERS, INC",Birth Choice Pregnancy Ctrs,18637 Yorba Linda Blvd,,Yorba Linda,CA,92886,,,,3,Open,2,2011/09/08,2011/10/17,Clinic,1,Community Clinic,5,Nonprofit,Nonprofit - Corporation,0.00000000,,,0,0,,100,-117.80884500,33.88861490,Orange,059,116m,Urban,06059021802,218.02,060590218024001,29,72,42,3,SLA,13,0,0,1,1,0,0,0,0
-118.1937157965796,33.805845436064786,7624,306197589,960001447,55887,158234,7346,2103,39510,PLANNED PARENTHOOD LOS ANGELES - LONG BEACH CENTER,Planned Parenthood Of LA,2690 Pacific Ave,Suite 370,Long Beach,CA,90806,,,,3,Open,2,2011/02/26,2011/10/17,Clinic,1,Community Clinic,5,Nonprofit,Nonprofit - Corporation,0.00000000,,,0,0,,100,-118.19372790,33.80585030,Los Angeles,037,78.2lll,Urban,06037572202,5722.02,060375722022001,27,54,37,3,SLA,11,8,0,1,1,0,0,0,0
-122.2399081575654,40.192281603597209,7625,306524015,230000357,55251,164184,7406,1923,39537,"NORTHERN VALLEY INDIAN HEALTH, INC",N. Valley Indian Health,2500 Main St,,Red Bluff,CA,96080,,,,3,Open,2,2011/10/03,2011/12/22,Clinic,1,Community Clinic,5,Nonprofit,Nonprofit - Corporation,0.00000000,,,0,0,,100,-122.23992160,40.19228680,Tehama,103,221,Rural,06103000500,5,061030005002000,04,02,02,2,NOR,01,0,1,0,1,0,0,0,0
-118.08426824271749,34.695985329568153,7626,206197616,550001735,58091,163901,7405,5935,28220,CAPRI IN THE DESERT,Capri In The Desert,44726 Cerisa St,,Lancaster,CA,93535,,,,2,Open,2,2011/09/13,2011/12/21,Long Term Care Facility,4,Congregate Living Health Facility,6,,,6.00000000,,,0,0,,100,-118.08428040,34.69599030,Los Angeles,037,77.1c,Urban,06037900605,9006.05,060379006051053,17,36,25,3,NLA,11,1,0,1,1,0,0,0,0
-118.57511809657224,34.252871407123216,7627,206197615,550001742,57230,163900,7404,4973,28219,CAREMERIDIAN - OSO HOUSE,Caremeridian,10035 Oso Ave,,Chatsworth,CA,91311,,,,2,Open,2,2011/09/30,2011/12/21,Long Term Care Facility,4,Congregate Living Health Facility,6,,,6.00000000,,,0,0,,89,-118.57513030,34.25287630,Los Angeles,037,78.2cccc,Urban,06037113322,1133.22,060371133222014,17,37,30,3,NLA,11,2,0,1,1,0,0,0,0
-122.70243861546595,38.440483379244675,7628,306494121,550001798,56083,167591,7485,6014,39556,BROOKWOOD HEALTH CENTER,Brookwood Hlth Ctr,983 Sonoma Ave,,Santa Rosa,CA,95404,,,,3,Open,2,2012/01/04,2012/02/23,Clinic,1,Community Clinic,5,Nonprofit,Nonprofit - Corporation,0.00000000,,,0,0,,100,-122.70245190,38.44048840,Sonoma,097,210.1,Urban,06097152000,1520,060971520002000,02,07,06,1,NOR,03,0,0,1,1,0,0,0,0
-117.9933738041682,34.148163285804202,7629,306197647,550001801,56085,167595,7487,1790,39558,"MISSION CITY COMMUNITY NETWORK, INC. - MONROVIA",Mission City Cmty Network,513 E Lime Ave,,Monrovia,CA,91016,,,,3,Open,2,2012/01/06,2012/02/23,Clinic,1,Community Clinic,5,Nonprofit,Nonprofit - Corporation,0.00000000,,,0,0,,100,-117.99338590,34.14816820,Los Angeles,037,78.2xxx,Urban,06037431001,4310.01,060374310012004,29,59,26,3,NLA,11,3,0,1,1,0,0,0,0
-117.74896515211853,34.07694598143766,7630,306197646,550001802,56084,167593,7486,1790,39557,"MISSION CITY COMMUNITY NERWORK, INC. - ORANGE GROVE",Mission City Cmty Nerwork,1818 N Orange Grove Ave,,Pomona,CA,91767,,,,3,Open,2,2012/01/06,2012/02/23,Clinic,1,Community Clinic,5,Nonprofit,Nonprofit - Corporation,0.00000000,,,0,0,,100,-117.74897720,34.07695090,Los Angeles,037,78.2tt,Urban,06037402102,4021.02,060374021023008,32,61,38,3,SLA,11,3,0,1,1,0,0,0,0
-118.46367421752774,34.228149104392749,7631,306197648,550001803,56086,167597,7488,1790,39559,"MISSION CITY COMMUNITY NETWORK, INC. - PARTHENIA",Mission City Cmty Network,15210 Parthenia St,,North Hills,CA,91343,,,,3,Open,2,2012/01/06,2012/02/23,Clinic,1,Community Clinic,5,Nonprofit,Nonprofit - Corporation,0.00000000,,,0,0,,100,-118.46368640,34.22815400,Los Angeles,037,78.2kk,Urban,06037117530,1175.30,060371175201003,20,39,28,3,NLA,11,2,0,1,1,0,0,0,0
-121.89057586036705,37.392872207594095,7632,406434229,550001815,56082,167586,7484,5940,40267,SOJOURN HOSPICE AND PALLIATIVE CARE,Sojourn Hospice And Palliative Care,1879 Lundy Ave,,San Jose,CA,95131,,,,4,Open,2,2012/01/19,2012/02/23,Home Health Agency/Hospice,2,Hospice,10,,,0.00000000,,,0,0,,100,-121.89058890,37.39287720,Santa Clara,085,183o,Urban,06085504310,5043.10,060855043102015,10,22,15,1,COA,07,0,0,1,1,0,0,0,0
-117.98907503796131,33.728036133798653,7633,406304485,550001818,57290,169766,7481,6010,40264,BRIGHTSTAR HOME HEALTH,Brightstar,16152 Beach Blvd,Ste. 145,Huntington Beach,CA,92647,,,,4,Open,2,2012/02/15,2012/04/03,Home Health Agency/Hospice,2,Home Health Agency,9,,,0.00000000,,,0,0,,100,-117.98908710,33.72804100,Orange,059,116j,Urban,06059099241,992.41,060590992412002,35,67,46,3,SLA,13,0,0,1,1,0,0,0,0
-117.11944885509276,32.827185293944325,7634,406374462,550001828,57648,167522,7468,6009,40262,"ABSOLUTE HOME HEALTH, INC.",Absolute Home Hlth,4740 Murphy Canyon Rd,,San Diego,CA,92123,,,,4,Open,2,2011/12/14,2012/02/22,Home Health Agency/Hospice,2,Home Health Agency,9,,,0.00000000,,,0,0,,100,-117.11946070,32.82719010,San Diego,073,161o,Urban,06073008511,85.11,060730085111029,39,76,52,3,SOU,14,0,0,1,1,0,0,0,0
-116.93584328921733,32.804630287196467,7635,406374463,550001830,57851,167573,7482,6011,40265,"SACRED HEART HEALTH CARE PROVIDERS, INC.",Sacred Heart Hlth Care Providers,758 N 2Nd St,,El Cajon,CA,92021,,,,4,Open,2,2012/01/25,2012/02/23,Home Health Agency/Hospice,2,Home Health Agency,9,,,0.00000000,,,0,0,,100,-116.93585510,32.80463510,San Diego,073,161h,Urban,06073016302,163.02,060730163021006,36,77,52,3,SOU,14,0,0,1,1,0,0,0,0
-117.12560315706412,32.78357919924435,7636,406374464,550001831,56080,167584,7483,6012,40266,"MISSION HOSPICE SERVICES OF SAN DIEGO, INC",Mission Hospice Svcs,2375 Northside Dr,,San Diego,CA,92108,,,,4,Open,2,2012/02/02,2012/02/23,Home Health Agency/Hospice,2,Hospice,10,,,0.00000000,,,0,0,A,100,-117.12561500,32.78358400,San Diego,073,161b,Urban,06073009304,93.04,060730093041003,39,76,53,3,SOU,14,0,0,1,1,0,0,0,0
-118.82806146239233,34.155151131906038,7637,406564224,,,167602,7489,,40268,24-7 QUALITY HOSPICE CARE INC,24-7 Quality Hospice Care,2659 Townsgate Rd,,Westlake Village,CA,91361,,,,4,Under Construction,3,2012/02/23,,Home Health Agency/Hospice,2,,,,,0.00000000,,,0,0,,100,-118.82807370,34.15515600,Ventura,111,240b,Urban,06111005906,59.06,061110059062021,19,37,24,3,MID,10,0,0,1,1,0,0,0,0
-118.82806146239233,34.155151131906038,7638,406197649,550001834,56088,167603,7490,6018,40269,"24-7 QUALITY HOSPICE CARE, INC",24-7 Quality Hospice Care,2659 Townsgate Rd,,Westlake Village,CA,91361,,,,4,Open,2,2012/02/10,2012/02/23,Home Health Agency/Hospice,2,Hospice,10,,,0.00000000,,,0,0,,97,-118.82807370,34.15515600,Ventura,111,240b,Urban,06111005906,59.06,061110059062021,19,37,24,3,MID,10,0,0,1,1,0,0,0,0
-122.47804883708596,37.68463922477946,7639,306414128,550001796,56262,168385,7502,1909,39566,NORTH EAST MEDICAL SERVICES - EASTMOOR,North East Medical Svcs,211 Eastmoor Ave,,Daly City,CA,94015,,,,3,Open,2,2011/12/15,2012/03/01,Clinic,1,Community Clinic,5,Nonprofit,Nonprofit - Corporation,0.00000000,,,0,0,,100,-122.47806200,37.68464420,San Mateo,081,176d,Urban,06081601400,6014,060816014003000,08,19,12,1,COA,04,0,0,1,1,0,0,0,0
-122.46830924125891,37.66415272630455,7640,406414129,550001811,57495,168410,7507,6028,40276,"CALCARE HOME HEALTH CARE & HOSPICE, INC.",Calcare HHC & Hospice,455 Hickey Blvd,,Daly City,CA,94015,,,,4,Open,2,2011/12/08,2012/03/01,Home Health Agency/Hospice,2,Home Health Agency,9,,,0.00000000,,,0,0,,100,-122.46832240,37.66415770,San Mateo,081,176d,Urban,06081601603,6016.03,060816016041008,08,19,12,1,COA,04,0,0,1,1,0,0,0,0
-118.27776636168099,34.065470710582737,7641,406197650,550001840,56259,168374,7501,6026,40274,FOUNTAIN HOSPICE,Fountain Hospice,2542 W 3Rd St,,Los Angeles,CA,90057,,,,4,Open,2,2011/12/30,2012/03/01,Home Health Agency/Hospice,2,Hospice,10,,,0.00000000,,,0,0,,100,-118.27777850,34.06547560,Los Angeles,037,78.2ffff,Urban,06037208800,2088,060372088003001,22,46,31,3,NLA,11,4,0,1,1,0,0,0,0
-117.48945681104564,33.895759587013025,7642,406334639,550001844,56258,168371,7500,6025,40273,RELIANCE HOSPICE INC.,Reliance Hospice.,11748 Magnolia Ave,,Riverside,CA,92503,,,,4,Open,2,2012/02/22,2012/03/01,Home Health Agency/Hospice,2,Hospice,10,,,0.00000000,,,0,0,,100,-117.48946880,33.89576450,Riverside,065,135d,Urban,06065041405,414.05,060650414052003,31,66,44,3,SOU,12,0,0,1,1,0,0,0,0
-121.61449289409163,39.145497738053784,7643,306514044,230000280,57305,172698,7574,5825,39589,AMPLA HEALTH YUBA CITY MEDICAL,Yuba City Medical,935 Market St,,Yuba City,CA,95991,,,,3,Open,2,2012/06/01,2012/05/29,Clinic,1,Community Clinic,5,Nonprofit,Nonprofit - Corporation,0.00000000,,,0,0,,100,-121.61450610,39.14550290,Sutter,101,216,Rural,06101050101,501.01,061010501023007,04,02,02,2,NOR,02,0,0,1,1,0,0,0,0
-122.19885437246309,37.742699400061731,7644,406014281,550001472,53130,157304,7326,4958,40180,PREMIER HEALTHCARE SERVICES - OAKLAND,Premier Healthcare Svcs,7901 Oakport St,Suite 2500,Oakland,CA,94621,,,,4,Open,2,2011/01/28,2011/09/13,Home Health Agency/Hospice,2,Home Health Agency,9,,,0.00000000,,,0,0,,100,-122.19886750,37.74270440,Alameda,001,2d,Urban,06001409000,4090,060014090004015,09,16,09,1,CEN,05,0,0,1,1,0,0,0,0
-118.4505261228704,34.192931607090465,7645,406197585,550001599,53034,157107,7329,5876,40183,"SUNSHINE HOSPICE, INC",Sunshine Hospice,14549 Archwood St,,Van Nuys,CA,91405,,,,4,Open,2,2011/05/13,2011/09/09,Home Health Agency/Hospice,2,Hospice,10,,,0.00000000,,,0,0,,100,-118.45053830,34.19293650,Los Angeles,037,78.2cc,Urban,06037127802,1278.02,060371278021000,20,40,28,3,NLA,11,2,0,1,1,0,0,0,0
-118.12200374359622,34.60178134335731,7646,406197584,550001604,53033,157105,7328,5875,40182,"PEARLY SANDS HOSPICE AND PALLIATIVE CARE, CORP",Pearly Sands Hospice And Palliative Care,434 Rancho Vista Blvd,,Palmdale,CA,93550,,,,4,Open,2,2011/05/13,2011/09/09,Home Health Agency/Hospice,2,Hospice,10,,,0.00000000,,,0,0,,90,-118.12201590,34.60178630,Los Angeles,037,77.1b,Urban,06037910201,9102.01,060379102011039,17,36,25,3,NLA,11,1,0,1,0,0,0,0,0
-118.31913514668132,34.170997101872594,7647,406197586,550001605,53035,157109,7330,5877,40184,"COMFORT HOSPICE CARE OF BURBANK, INC",Comfort Hospice Care,1130 W Olive Ave,,Burbank,CA,91506,,,,4,Open,2,2011/05/26,2011/09/09,Home Health Agency/Hospice,2,Hospice,10,,,0.00000000,,,0,0,,100,-118.31914730,34.17100200,Los Angeles,037,78.2ttt,Urban,06037310800,3108,060373108003002,21,43,29,3,NLA,11,2,0,1,1,0,0,0,0
-118.36018024039967,34.172157303864886,7648,406197583,550001614,53032,157102,7327,5873,40181,"C@A HOSPICE, INC",C@A Hospice,10523 Burbank Blvd,,North Hollywood,CA,91601,,,,4,Open,2,2011/05/17,2011/09/09,Home Health Agency/Hospice,2,Hospice,10,,,0.00000000,,,0,0,,100,-118.36019240,34.17216220,Los Angeles,037,78.2bb,Urban,06037125310,1253.10,060371243001008,20,43,27,3,NLA,11,2,0,1,1,0,0,0,0
-124.14005828693487,40.785924119390778,7649,306124037,550001650,56642,157095,7325,5871,39504,J ROPHE MEDICAL,J Rophe Med,2458 Buhne St,,Eureka,CA,95501,,,,3,Open,2,2011/08/09,2011/09/09,Clinic,1,Free Clinic,7,Nonprofit,Nonprofit - Corporation,0.00000000,,,0,0,,100,-124.14007210,40.78592920,Humboldt,023,39,Rural,06023000600,6,060230006001009,02,01,01,1,NOR,01,0,1,0,1,0,0,0,0
-121.37215266628262,38.047416613814391,7650,306394103,,,157111,7331,,39505,ORPHAN,Gentiva Hlth Svcs,10100 Trinity Pkwy,,Stockton,CA,95219,,,,3,Under Construction,3,2011/09/12,,Clinic,1,,,,,0.00000000,,,0,0,,100,-121.37216570,38.04742170,San Joaquin,077,168,Rural,06077004002,40.02,060770040021027,05,10,11,2,CEN,06,0,0,1,0,0,0,0,0
-118.22516507708282,33.988938417351861,7651,306197673,550001973,57631,174627,7689,6096,39611,SALUD DIGNA,Salud Digna,5900 Pacific Blvd,,Huntington Park,CA,90255,,,,3,Open,2,2012/07/02,2012/08/10,Clinic,1,Community Clinic,5,Nonprofit,Nonprofit - Corporation,0.00000000,,,0,0,,100,-118.22517720,33.98894330,Los Angeles,037,78.2ccc,Urban,06037532605,5326.05,060375326051000,30,46,34,3,NLA,11,7,0,1,1,0,0,0,0
-118.21149587538133,34.04476910961489,7652,306197668,550001974,57627,174618,7683,106,39606,AltaMed Medical & Dental Group-East Los Angeles 1st street,Altamed Medical & Dental Group,2219 E 1St St,,Los Angeles,CA,90033,3901,,,3,Open,2,2012/06/29,2012/08/10,Clinic,1,Community Clinic,5,Nonprofit,Nonprofit - Corporation,0.00000000,,,0,0,A,100,-118.21150800,34.04477400,Los Angeles,037,78.2h,Urban,06037204420,2044.20,060372044201004,22,46,34,3,NLA,11,4,0,1,1,0,0,0,0
-117.72196745749315,34.062952581308245,7653,306197671,550001975,57630,174623,7686,5666,39609,POMONA COMMUNITY HEALTH CENTER,Pomona Cmty Hlth Ctr,1450 E Holt Ave,,Pomona,CA,91767,,,,3,Open,2,2012/06/27,2012/08/10,Clinic,1,Community Clinic,5,Nonprofit,Nonprofit - Corporation,0.00000000,,,0,0,,100,-117.72197950,34.06295750,Los Angeles,037,78.2ss,Urban,06037402702,4027.02,060374027021005,32,61,38,3,SLA,11,3,0,1,1,0,0,0,0
-118.30297434918877,34.180799700240257,7654,306197670,550001983,57629,174621,7685,3453,39608,"ALL FOR HEALTH, HEALTH FOR ALL, INC.","All For Hlth, Hlth For All",401 S Glenoaks Blvd,,Burbank,CA,91502,,,,3,Open,2,2012/06/27,2012/08/10,Clinic,1,Community Clinic,5,Nonprofit,Nonprofit - Corporation,0.00000000,,,0,0,,100,-118.30298650,34.18080460,Los Angeles,037,78.2ttt,Urban,06037310702,3107.02,060373107021002,21,43,29,3,NLA,11,2,0,1,1,0,0,0,0
-121.84944095111744,36.600713376045285,7655,306274083,550001985,57715,175038,7699,3395,39617,SEASIDE COMMUNITY HEALTH CENTER,Seaside Cmty Hlth Ctr,1130 Fremont Blvd,,Seaside,CA,93955,,,,3,Open,2,2012/07/03,2012/08/14,Clinic,1,Community Clinic,5,Nonprofit,Nonprofit - Corporation,0.00000000,,,0,0,,100,-121.84945390,36.60071830,Monterey,053,110,Urban,06053013600,136,060530136002002,15,27,17,1,COA,08,0,0,1,1,0,0,0,0
-121.93222346146585,37.316187017823609,7656,406434232,550001989,57716,175040,7700,6106,40346,"SERENE HOME HEALTHCARE, INC.",Serene Home Hlthcare,2211 Moorpark Ave,,San Jose,CA,95128,,,,4,Open,2,2012/07/09,2012/08/14,Home Health Agency/Hospice,2,Home Health Agency,9,,,0.00000000,,,0,0,,100,-121.93223650,37.31619200,Santa Clara,085,183j,Urban,06085502101,5021.01,060855021011009,13,24,15,1,COA,07,0,0,1,1,0,0,0,0
-121.82832487276539,37.366198305854574,7657,306434230,550002002,57626,174613,7680,6092,39605,REALOPTIONS,Realoptions,12 N White Rd,,San Jose,CA,95127,,,,3,Open,2,2012/06/29,2012/08/09,Clinic,1,Community Clinic,5,Nonprofit,Nonprofit - Corporation,0.00000000,,,0,0,,100,-121.82833790,37.36620330,Santa Clara,085,183b,Urban,06085503900,5039,060855039004011,13,23,16,1,COA,07,0,0,1,1,0,0,0,0
-121.89205984463759,36.595902079280812,7658,406274082,550002006,57637,174649,7697,6103,40344,"PENINSULA HOME HEALTHCARE, INC.",Peninsula Home Hlthcare,659 Abrego St,,Monterey,CA,93940,,,,4,Open,2,2012/07/18,2012/08/10,Home Health Agency/Hospice,2,Home Health Agency,9,,,0.00000000,,,0,0,,100,-121.89207280,36.59590700,Monterey,053,110,Urban,06053012700,127,060530127004046,15,27,17,1,COA,08,0,0,1,1,0,0,0,0
-118.21162127492053,34.044588409581252,7659,306197672,,,174625,7687,,39610,ALTAMED MEDICAL & DENTAL GROUP - EAST LOS ANGELES,Altamed Medical & Dental Group,2219 E 1St St,,Los Angeles,CA,90033,,,,3,Under Construction,3,2012/08/10,2012/08/10,Clinic,1,,,,,0.00000000,,,0,0,,100,-118.21163340,34.04459330,Los Angeles,037,78.2h,Urban,06037204420,2044.20,060372044201006,22,46,34,3,NLA,11,4,0,1,1,0,0,0,0
-121.87738286793997,37.34274401201111,7660,406434231,,,174640,7696,,40343,"ST. PATRICK HOME HEEALTH PROVIDERS, INC.",St. Patrick Home Health Providers,25 N 14Th St,,San Jose,CA,95112,,,,4,Under Construction,3,2012/08/10,2012/08/10,Home Health Agency/Hospice,2,,,,,0.00000000,,,0,0,,100,-121.87739590,37.34274900,Santa Clara,085,183j,Urban,06085501200,5012,060855012003008,13,23,16,1,COA,07,0,0,1,1,0,0,0,0
-118.12200374359622,34.60178134335731,7661,406197511,550001586,52626,155541,7181,5751,40088,GRACEFUL PALMS HOSPICE AND PALLIATIVE CARE CORP.,Graceful Palms Hospice & Palliative Care,434 Rancho Vista Blvd,Suite B,Palmdale,CA,93550,,,,4,Open,2,2011/05/05,2011/08/09,Home Health Agency/Hospice,2,Hospice,10,,,0.00000000,,,0,0,,90,-118.12201590,34.60178630,Los Angeles,037,77.1b,Urban,06037910201,9102.01,060379102011039,17,36,25,3,NLA,11,1,0,1,0,0,0,0,0
-118.63184739464236,34.162048920360597,7662,406197504,550001587,52609,155202,7170,5742,40080,"ETERNALLY YOURS HOSPICE, INC.",Eternally Yours Hospice,23241 Ventura Blvd,,Woodland Hills,CA,91364,,,,4,Open,2,2011/05/12,2011/08/05,Home Health Agency/Hospice,2,Hospice,10,,,0.00000000,,,0,0,,100,-118.63185960,34.16205380,Los Angeles,037,78.2xx,Urban,06037137000,1370,060371370001026,23,40,30,3,NLA,11,2,0,1,1,0,0,0,0
-118.59734039791492,34.186942116397134,7663,406197503,550001588,57178,155193,7169,5741,40079,"EVERLOVING HOME HEALTH, INC.",Everloving Home Hlth,6400 Canoga Ave,,Woodland Hills,CA,91367,,,,4,Open,2,2011/05/12,2011/08/05,Home Health Agency/Hospice,2,Home Health Agency,9,,,0.00000000,,,0,0,,100,-118.59735260,34.18694700,Los Angeles,037,78.2ii,Urban,06037134902,1349.02,060371351123004,23,41,30,3,NLA,11,2,0,1,1,0,0,0,0
-119.80129840754253,36.298262367940985,7664,306164030,550001590,57347,155421,7209,5773,39469,LEMOORE DIALYSIS,Lemoore Dialysis,1345 W Bush St,,Lemoore,CA,93245,,,,3,Open,2,2011/05/05,2011/08/09,Clinic,1,Chronic Dialysis Clinic,4,,,0.00000000,,,0,0,,100,-119.80131100,36.29826740,Kings,031,69,Rural,06031000402,4.02,060310004041085,16,30,20,2,MID,09,0,1,1,1,0,0,0,0
-119.17846420029444,34.208552845706457,7665,306564219,550001592,57092,155225,7173,5745,39459,FAMILY PLANNING SURGERY CENTER,Family Planning Surgery Ctr,625 N A St,,Oxnard,CA,93030,,,,3,Open,2,2011/05/24,2011/08/08,Clinic,1,Surgical Clinic,20,,,0.00000000,,,0,0,,100,-119.17847650,34.20855770,Ventura,111,241b,Urban,06111003300,33,061110033001008,23,35,23,3,MID,10,0,0,1,1,0,0,0,0
-117.54545760418088,33.865488393909025,7666,406334630,550001597,57676,155355,7198,5761,40100,CROWN HOME HEALTH CORPORATION,Crown Home Hlth Corp,1411 Rimpau Ave,Suite 204,Corona,CA,92879,,,,4,Open,2,2011/06/01,2011/08/08,Home Health Agency/Hospice,2,Home Health Agency,9,,,0.00000000,,,0,0,,100,-117.54546960,33.86549330,Riverside,065,135f,Urban,06065041813,418.13,060650418131005,37,71,44,3,SOU,12,0,0,1,1,0,0,0,0
-121.32141288447282,38.795526545134521,7667,406314047,550001603,57669,155182,7167,5739,40077,"ALWAYS BEST CARE SACRAMENTO, LLC",Always Best Care,1406 Blue Oaks Blvd,,Roseville,CA,95747,,,,4,Open,2,2011/06/15,2011/08/05,Home Health Agency/Hospice,2,Home Health Agency,9,,,0.00000000,,,0,0,,100,-121.32142600,38.79553170,Placer,061,121.1,Urban,06061021005,210.05,060610210051005,01,04,04,2,NOR,02,0,0,1,0,0,0,0,0
-117.33765121767674,34.143315949963494,7668,306364422,550001610,57143,155179,7166,5738,39458,AL-SHIFA CLINIC,Al-Shifa Clinic,2034 Mallory St,,San Bernardino,CA,92407,,,,3,Open,2,2011/05/16,2011/08/05,Clinic,1,Community Clinic,5,Nonprofit,Nonprofit - Corporation,0.00000000,,,0,0,,100,-117.33766320,34.14332090,San Bernardino,071,151g,Urban,06071004100,41,060710041006000,32,62,43,3,SOU,12,0,0,1,1,0,0,0,0
-120.58077669369381,35.109511635274565,7669,306404077,550001618,58466,155339,7195,3238,39466,COMMUNITY HEALTH CENTERS ARROYO GRANDE HIGH SCHOOL,Cmty Hlth Ctrs,495 Valley Rd,,Arroyo Grande,CA,93420,,,,3,Open,2,2011/07/06,2011/08/08,Clinic,1,Community Clinic,5,Nonprofit,Nonprofit - Corporation,0.00000000,,,0,0,,100,-120.58078930,35.10951650,San Luis Obispo,079,171,Rural,06079011901,119.01,060790119011010,15,33,22,3,MID,08,0,1,1,1,0,0,0,0
-120.43571613087219,34.954855242383225,7670,306424079,550001619,58467,155338,7194,3238,39465,COMMUNITY HEALTH CENTERS BROADWAY,Cmty Hlth Ctrs,210 N Broadway,,Santa Maria,CA,93454,,,,3,Open,2,2011/07/06,2011/08/08,Clinic,1,Community Clinic,5,Nonprofit,Nonprofit - Corporation,0.00000000,,,0,0,,100,-120.43572870,34.95486010,Santa Barbara,083,180.1,Urban,06083002206,22.06,060830023041014,15,33,23,3,MID,10,0,0,1,1,0,0,0,0
-117.28290050044868,34.473340108984928,7671,406364425,550001527,52654,155391,7205,5768,40107,"HIGH DESERT HOSPICE SERVICES, INC.",High Desert Hospice Svcs,12241 Industrial Blvd,,Victorville,CA,92395,,,,4,Open,2,2011/03/16,2011/08/09,Home Health Agency/Hospice,2,Hospice,10,,,0.00000000,,,0,0,,100,-117.28291250,34.47334510,San Bernardino,071,145.1a,Urban,06071010003,100.03,060710100032092,17,36,25,3,SOU,12,0,0,1,1,0,0,0,0
-122.56877238384915,38.025994902558288,7672,406214053,550001533,55170,155423,7210,5774,40109,LOVING CARE TO YOU,Loving Care To You,7 Mount Lassen Dr,,San Rafael,CA,94903,,,,4,Open,2,2011/03/08,2011/08/09,Home Health Agency/Hospice,2,Home Health Agency,9,,,0.00000000,,,0,0,,100,-122.56878560,38.02599990,Marin,041,83a,Urban,06041107000,1070,060411070002014,03,06,06,1,NOR,04,0,0,1,1,0,0,0,0
-118.37781593736399,34.16487280637994,7673,406197520,550001555,52653,155390,7204,5767,40106,"HEAVEN HOSPICE, INC.",Heaven Hospice,11326 Magnolia Blvd,,North Hollywood,CA,91601,,,,4,Open,2,2011/03/29,2011/08/09,Home Health Agency/Hospice,2,Hospice,10,,,0.00000000,,,0,0,,100,-118.37782810,34.16487770,Los Angeles,037,78.2ttt,Urban,06037125400,1254,060371253201013,20,43,28,3,NLA,11,2,0,1,1,0,0,0,0
-118.36018024039967,34.172157303864886,7674,406197507,550001563,52621,155249,7177,5747,40084,DOCTORS CHOICE HOSPICE,Doctors Choice Hospice,10523 Burbank Blvd,,North Hollywood,CA,91601,,,,4,Open,2,2011/04/08,2011/08/08,Home Health Agency/Hospice,2,Hospice,10,,,0.00000000,,,0,0,,100,-118.36019240,34.17216220,Los Angeles,037,78.2bb,Urban,06037125310,1253.10,060371243001008,20,43,27,3,NLA,11,2,0,1,1,0,0,0,0
-118.25796325823615,34.154827299676633,7675,406197506,550001571,57064,155217,7172,5744,40082,"FIRST RESPONSE HOME CARE, INC.",First Response Home Care,610 N Central Ave,,Glendale,CA,91203,,,,4,Open,2,2011/04/22,2011/08/08,Home Health Agency/Hospice,2,Home Health Agency,9,,,0.00000000,,,0,0,,100,-118.25797540,34.15483220,Los Angeles,037,78.2ee,Urban,06037301800,3018,060373018002005,21,43,29,3,NLA,11,2,0,1,1,0,0,0,0
-118.32161724646032,34.168380101890108,7676,406197518,550001580,57215,156922,7199,5762,40101,CURING HANDS HOME HEALTH,Curing Hands Home Hlth,1508 W Verdugo Ave,Suite B1,Burbank,CA,91506,,,,4,Open,2,2011/07/28,2011/09/02,Home Health Agency/Hospice,2,Home Health Agency,9,,,0.00000000,,,0,0,,90,-118.32162940,34.16838500,Los Angeles,037,78.2ttt,Urban,06037311700,3117,060373108003007,21,43,27,3,NLA,11,2,0,1,1,0,0,0,0
-118.17885897658739,34.086029203268374,7677,306197165,550001621,57558,155211,6429,179,39228,ARROYO VISTA FAMILY HEALTH CENTER-ES HUNTINGTON DRIVE,Arroyo Vista Family Hlth Ctr,4837 Huntington Dr N,,Los Angeles,CA,90032,,,,3,Open,2,2011/06/29,2011/08/08,Clinic,1,Community Clinic,5,Nonprofit,Nonprofit - Corporation,0.00000000,,,0,0,,100,-118.17887110,34.08603410,Los Angeles,037,78.2i,Urban,06037201401,2014.01,060372012001015,24,45,31,3,NLA,11,4,0,1,1,0,0,0,0
-117.14935132669829,33.146939157409371,7678,406374453,550001589,56061,155547,7229,4958,40122,"PREMIER HEALTHCARE SERVICES, LLC - SAN MARCOS",Premier Healthcare Svcs,370 Mulberry Dr,,San Marcos,CA,92069,,,,4,Open,2,2011/04/20,2011/08/10,Home Health Agency/Hospice,2,Home Health Agency,9,,,0.00000000,,,0,0,,100,-117.14936320,33.14694400,San Diego,073,156e,Urban,06073020023,200.23,060730200232003,38,74,50,3,SOU,14,0,0,1,1,0,0,0,0
-118.29430485087147,34.174603400115679,7679,406197551,550001594,56898,155704,7258,5818,40147,VIDA HOSPICE,Vida Hospice,1925 W Glenoaks Blvd,,Glendale,CA,91201,,,,4,Open,2,2011/04/19,2011/08/11,Home Health Agency/Hospice,2,Home Health Agency,9,,,0.00000000,,,0,0,,100,-118.29431700,34.17460830,Los Angeles,037,78.2dd,Urban,06037301502,3015.02,060373015023000,21,43,29,3,NLA,11,2,0,1,1,0,0,0,0
-118.20628827483212,34.055650107946725,7680,406197543,550001595,52708,155628,7245,5805,40135,"SIERRA HOSPICE CARE, INC.",Sierra Hospice Care,1063 N Chicago St,,Los Angeles,CA,90033,,,,4,Open,2,2011/05/18,2011/08/11,Home Health Agency/Hospice,2,Hospice,10,,,0.00000000,,,0,0,,100,-118.20630040,34.05565500,Los Angeles,037,78.2h,Urban,06037203600,2036,060372036001003,24,46,34,3,NLA,11,4,0,1,1,0,0,0,0
-117.17951449287303,33.534924712442013,7681,406334632,550001598,52725,155715,7260,5820,40149,"VINE HEALTH CARE, INC.",Vine Hlth Care,26359 Jefferson Ave,,Murrieta,CA,92562,,,,4,Open,2,2011/05/25,2011/08/11,Home Health Agency/Hospice,2,Home Health Agency,9,,,0.00000000,,,0,0,,100,-117.17952640,33.53492960,Riverside,065,131b,Urban,06065043223,432.23,060650432231036,36,66,45,3,SOU,12,0,0,1,0,0,0,0,0
-121.95388815805406,37.323291619389181,7682,406434222,550001613,58448,155630,7246,5806,40136,"ST. JAMES HOME HEALTH, INC.",St. James Home Health,3221 Stevens Creek Blvd,,San Jose,CA,95117,,,,4,Open,2,2011/06/29,2011/08/11,Home Health Agency/Hospice,2,Home Health Agency,9,,,0.00000000,,,0,0,,100,-121.95390120,37.32329660,Santa Clara,085,183n,Urban,06085505900,5059,060855059003012,13,24,15,1,COA,07,0,0,1,1,0,0,0,0
-118.35361516645442,33.846090140366236,7683,306197548,550001617,57333,155660,7252,5812,39479,TORRANCE PENINSULA DIALYSIS CENTER,Torrance Peninsula Dialysis Ctr,20430 Hawthorne Blvd,,Torrance,CA,90503,,,,3,Open,2,2011/06/23,2011/08/11,Clinic,1,Chronic Dialysis Clinic,4,,,0.00000000,,,0,0,,100,-118.35362730,33.84609500,Los Angeles,037,78.2u,Urban,06037650601,6506.01,060376506011003,28,53,36,3,SLA,11,8,0,1,1,0,0,0,0
-121.7769286281451,36.930467840552076,7684,306444026,070000284,55319,155990,7279,2104,39492,PLANNED PARENTHOOD - WATSONVILLE,Planned Parenthood,398 S Green Valley Rd,,Watsonville,CA,95076,,,,3,Open,2,2011/05/25,2011/08/18,Clinic,1,Community Clinic,5,Nonprofit,Nonprofit - Corporation,0.00000000,,,0,0,,100,-121.77694160,36.93047280,Santa Cruz,087,184,Urban,06087110502,1105.02,060871106003002,15,28,17,1,COA,08,0,0,1,1,0,0,0,0
-120.9722781570875,38.65818213127357,7685,306094027,110000457,57265,155988,7278,5945,39491,CAMERON PARK DIALYSIS,Cameron Park Dialysis,3311 Coach Ln,,Cameron Park,CA,95682,,,,3,Open,2,2011/06/07,2011/08/18,Clinic,1,Chronic Dialysis Clinic,4,,,0.00000000,,,0,0,,100,-120.97229120,38.65818730,El Dorado,017,23.1,Urban,06017030804,308.04,060170308041064,01,04,04,2,NOR,02,0,0,1,0,0,0,0,0
