,saletype,solddate,proptype,address,city,state,zip,price,beds,baths,location,sqft,lotsize,yrbuilt,daysonmkt,pricesqft,hoamonth,status,nextopenstart,nextopenend,url,source,mls,favorite,interested,latitude,longitude,county,fips_code
0,PAST SALE,February-7-2017,Single Family Residential,521 Cayuga Ave,San Francisco,CA,94112.0,1200000.0,2.0,1.25,Mission Terrace,1500.0,2265.0,1940.0,26.0,800.0,,Sold,,,http://www.redfin.com/CA/San-Francisco/521-Cayuga-Ave-94112/home/812038,San Francisco MLS,453167,N,Y,37.728859899999996,-122.4353078,San Francisco,060750255003002
1,PAST SALE,February-10-2017,Condo/Co-op,95 Red Rock Way Unit 105M,San Francisco,CA,94131.0,590000.0,0.0,1.0,Diamond Heights,650.0,,1972.0,23.0,908.0,443.0,Sold,,,http://www.redfin.com/CA/San-Francisco/95-Red-Rock-Way-94131/unit-105M/home/1441007,San Francisco MLS,452726,N,Y,37.746324,-122.44151699999999,San Francisco,060750216002010
2,PAST SALE,February-10-2017,Single Family Residential,3157 Baker St,San Francisco,CA,94123.0,3260000.0,5.0,3.5,Marina,3646.0,2050.0,2003.0,23.0,894.0,,Sold,,,http://www.redfin.com/CA/San-Francisco/3157-Baker-St-94123/home/848085,San Francisco MLS,451943,N,Y,37.8002181,-122.4464551,San Francisco,060750127003003
3,PAST SALE,February-17-2017,Single Family Residential,2594 San Jose Ave,San Francisco,CA,94112.0,920000.0,3.0,2.0,San Francisco,1287.0,2495.0,1960.0,16.0,,,Sold,,,http://www.redfin.com/CA/San-Francisco/2594-San-Jose-Ave-94112/home/1822379,MetroList,16067859,N,Y,37.7164354,-122.4504437,San Francisco,060750312022019
4,PAST SALE,February-27-2017,Single Family Residential,130 Brazil Ave,SAN FRANCISCO,CA,94112.0,790000.0,2.0,1.0,SAN FRANCISCO,1125.0,2495.0,1923.0,6.0,702.0,,Sold,,,http://www.redfin.com/CA/San-Francisco/130-Brazil-Ave-94112/home/1655522,MLSListings,ML81635907,N,Y,37.72392,-122.43373500000001,San Francisco,060750260012001
5,PAST SALE,February-3-2017,Condo/Co-op,1553 Treat Ave,San Francisco,CA,94110.0,1275000.0,3.0,2.0,Bernal Heights,1270.0,,1906.0,30.0,1004.0,428.0,Sold,,,http://www.redfin.com/CA/San-Francisco/1553-Treat-Ave-94110/home/110052495,San Francisco MLS,453326,N,Y,37.7459386,-122.41234779999999,San Francisco,060750252002001
6,PAST SALE,February-16-2017,Condo/Co-op,3030-3032 Franklin St #3032,San Francisco,CA,94123.0,2400000.0,3.0,2.5,Marina,1894.0,,,17.0,1267.0,300.0,Sold,,,http://www.redfin.com/CA/San-Francisco/3030-Franklin-St-94123/unit-3032/home/113114271,San Francisco MLS,454302,N,Y,37.802545,-122.42611200000002,San Francisco,060750129012005
7,PAST SALE,February-3-2017,Multi-Family (2-4 Unit),709-711 Lyon St,San Francisco,CA,94115.0,1649545.0,,,North Panhandle,,,,30.0,,,Sold,,,http://www.redfin.com/CA/San-Francisco/711-Lyon-St-94115/home/1269588,San Francisco MLS,452198,N,Y,37.777573,-122.4436122,San Francisco,060750157002002
8,PAST SALE,February-21-2017,Condo/Co-op,765 Market St Unit 23AB,San Francisco,CA,94103.0,5724000.0,4.0,4.5,South of Market,3594.0,,2001.0,12.0,1593.0,4413.0,Sold,,,http://www.redfin.com/CA/San-Francisco/765-Market-St-94103/unit-23AB/home/103713814,San Francisco MLS,441850,N,Y,37.786212,-122.404303,San Francisco,060750615001032
9,PAST SALE,March-1-2017,Condo/Co-op,3053 Franklin St,San Francisco,CA,94123.0,1375000.0,2.0,1.5,Marina,1625.0,,1924.0,4.0,846.0,180.0,Sold,,,http://www.redfin.com/CA/San-Francisco/3053-Franklin-St-94123/home/1198235,San Francisco MLS,454237,N,Y,37.802704999999996,-122.426801,San Francisco,060750129012004
10,PAST SALE,March-2-2017,Condo/Co-op,179 Douglass St #1,San Francisco,CA,94114.0,895000.0,1.0,1.0,Eureka Valley/Dolore,808.0,,1932.0,3.0,1108.0,365.0,Sold,,,http://www.redfin.com/CA/San-Francisco/179-Douglass-St-94114/unit-1/home/12352991,San Francisco MLS,454000,N,Y,37.761105,-122.43906100000001,San Francisco,060750205001006
11,PAST SALE,February-22-2017,Condo/Co-op,2501 Harrison St #14,San Francisco,CA,94110.0,1108000.0,1.0,1.5,Inner Mission,1199.0,,2001.0,11.0,924.0,365.0,Sold,,,http://www.redfin.com/CA/San-Francisco/2501-Harrison-St-94110/unit-14/home/12397388,San Francisco MLS,453918,N,Y,37.7572201,-122.4119972,San Francisco,060750228032004
12,PAST SALE,February-27-2017,Single Family Residential,1558 Grove St,San Francisco,CA,94117.0,3500000.0,3.0,3.0,North Panhandle,,3436.0,1900.0,6.0,,,Sold,,,http://www.redfin.com/CA/San-Francisco/1558-Grove-St-94117/home/593985,San Francisco MLS,454530,N,Y,37.7756479,-122.442424,San Francisco,060750165001000
13,PAST SALE,February-23-2017,Condo/Co-op,3235 Gough St #204,San Francisco,CA,94123.0,754960.0,2.0,1.0,Marina,886.0,,1927.0,10.0,852.0,440.0,Sold,,,http://www.redfin.com/CA/San-Francisco/3235-Gough-St-94123/unit-204/home/28890235,San Francisco MLS,450373,N,Y,37.803216,-122.42865800000001,San Francisco,060750129012002
14,PAST SALE,March-1-2017,Single Family Residential,579 34th Ave,San Francisco,CA,94121.0,1320000.0,2.0,1.0,Outer Richmond,1295.0,2996.0,1928.0,4.0,1019.0,,Sold,,,http://www.redfin.com/CA/San-Francisco/579-34th-Ave-94121/home/609974,San Francisco MLS,453794,N,Y,37.778132,-122.494598,San Francisco,060750478023002
15,PAST SALE,March-1-2017,Condo/Co-op,900 Bush St #806,San Francisco,CA,94109.0,715000.0,1.0,1.0,Downtown,730.0,,,4.0,979.0,827.0,Sold,,,http://www.redfin.com/CA/San-Francisco/900-Bush-St-94109/unit-806/home/1871297,San Francisco MLS,453733,N,Y,37.7899818,-122.41251070000001,San Francisco,060750119012000
16,PAST SALE,February-6-2017,Condo/Co-op,325 Berry St #717,San Francisco,CA,94158.0,960000.0,1.0,1.0,Mission Bay,741.0,,2007.0,27.0,1296.0,537.0,Sold,,,http://www.redfin.com/CA/San-Francisco/325-Berry-St-94158/unit-717/home/17304546,San Francisco MLS,453745,N,Y,37.773412799999996,-122.39574740000002,San Francisco,060750607001036
17,PAST SALE,February-24-2017,Multi-Family (2-4 Unit),954 Ingerson Ave,San Francisco,CA,94124.0,1042500.0,7.0,4.0,Bayview,3076.0,2500.0,1910.0,9.0,339.0,,Sold,,,http://www.redfin.com/CA/San-Francisco/954-Ingerson-Ave-94124/home/1015770,San Francisco MLS,444631,N,Y,37.7187773,-122.3920304,San Francisco,060750234002008
18,PAST SALE,February-17-2017,Condo/Co-op,2545 Post St #1,San Francisco,CA,94115.0,1835000.0,3.0,2.0,Lower Pacific Height,1902.0,,1988.0,16.0,965.0,350.0,Sold,,,http://www.redfin.com/CA/San-Francisco/2545-Post-St-94115/unit-1/home/12402276,San Francisco MLS,453697,N,Y,37.783691600000004,-122.44383229999998,San Francisco,060750154002004
19,PAST SALE,February-21-2017,Condo/Co-op,1310 Fillmore St #804,San Francisco,CA,94115.0,837000.0,1.0,1.0,Western Addition,858.0,,2007.0,12.0,976.0,624.0,Sold,,,http://www.redfin.com/CA/San-Francisco/1310-Fillmore-St-94115/unit-804/home/17306826,San Francisco MLS,453579,N,Y,37.781644799999995,-122.4320375,San Francisco,060750159002009
20,PAST SALE,February-17-2017,Single Family Residential,438 Monterey Blvd,San Francisco,CA,94127.0,1075000.0,2.0,1.0,Sunnyside,1025.0,2500.0,1925.0,16.0,1049.0,,Sold,,,http://www.redfin.com/CA/San-Francisco/438-Monterey-Blvd-94127/home/1102402,San Francisco MLS,453577,N,Y,37.731836,-122.445227,San Francisco,060750311005009
21,PAST SALE,February-10-2017,Multi-Family (2-4 Unit),478-480 10th Ave,San Francisco,CA,94118.0,1810000.0,4.0,4.0,Inner Richmond,3634.0,2996.0,1915.0,23.0,498.0,,Sold,,,http://www.redfin.com/CA/San-Francisco/480-10th-Ave-94118/home/2030959,San Francisco MLS,453006,N,Y,37.7791245,-122.4683334,San Francisco,060750452005001
22,PAST SALE,March-2-2017,Single Family Residential,9 De Soto St,San Francisco,CA,94127.0,2550000.0,5.0,3.5,Ingleside Terrace,4108.0,5533.0,,3.0,621.0,,Sold,,,http://www.redfin.com/CA/San-Francisco/9-De-Soto-St-94127/home/1744299,San Francisco MLS,454297,N,Y,37.721956899999995,-122.46679170000002,San Francisco,060750309003021
23,PAST SALE,March-1-2017,Condo/Co-op,2020 Ellis St #203,San Francisco,CA,94115.0,715000.0,1.0,1.0,Anza Vista,638.0,,2012.0,4.0,1121.0,503.0,Sold,,,http://www.redfin.com/CA/San-Francisco/2020-Ellis-St-94115/unit-203/home/55244661,San Francisco MLS,453746,N,Y,37.781672799999996,-122.4394793,San Francisco,060750158012008
24,PAST SALE,February-21-2017,Condo/Co-op,2189 Bayshore Blvd #201,San Francisco,CA,94134.0,875000.0,3.0,3.0,Little Hollywood,1750.0,,2009.0,12.0,500.0,428.0,Sold,,,http://www.redfin.com/CA/San-Francisco/2189-Bayshore-Blvd-94134/unit-201/home/21995014,San Francisco MLS,453333,N,Y,37.7123064,-122.4012139,San Francisco,060750610002012
25,PAST SALE,February-16-2017,Single Family Residential,1438 29th Ave,San Francisco,CA,94122.0,1130000.0,2.0,1.5,Central Sunset,1850.0,3000.0,1928.0,17.0,611.0,,Sold,,,http://www.redfin.com/CA/San-Francisco/1438-29th-Ave-94122/home/1350741,San Francisco MLS,452564,N,Y,37.760482,-122.487328,San Francisco,060750327003000
26,PAST SALE,March-3-2017,Condo/Co-op,3121 20th St #4,San Francisco,CA,94110.0,1700000.0,3.0,2.5,Inner Mission,2191.0,,1997.0,2.0,776.0,450.0,Sold,,,http://www.redfin.com/CA/San-Francisco/3121-20th-St-94110/unit-4/home/12396597,San Francisco MLS,454142,N,Y,37.7588537,-122.41198999999999,San Francisco,060750228012005
27,PAST SALE,February-23-2017,Single Family Residential,2701 Taraval St,San Francisco,CA,94116.0,1186000.0,2.0,2.0,Outer Parkside,1200.0,2063.0,1947.0,10.0,988.0,,Sold,,,http://www.redfin.com/CA/San-Francisco/2701-Taraval-St-94116/home/1685668,San Francisco MLS,453750,N,Y,37.7420422,-122.49516940000001,San Francisco,060750353002008
28,PAST SALE,February-24-2017,Condo/Co-op,77 Grattan St,San Francisco,CA,94117.0,910000.0,1.0,1.0,Parnassus/Ashbury Heights,768.0,,1907.0,9.0,1185.0,250.0,Sold,,,http://www.redfin.com/CA/San-Francisco/77-Grattan-St-94117/home/28679689,San Francisco MLS,453235,N,Y,37.763948299999996,-122.44932299999999,San Francisco,060750171022000
29,PAST SALE,February-24-2017,Single Family Residential,227 Douglass St,San Francisco,CA,94114.0,2700000.0,3.0,3.0,Eureka Valley/Dolore,,3125.0,1900.0,9.0,,,Sold,,,http://www.redfin.com/CA/San-Francisco/227-Douglass-St-94114/home/1741516,San Francisco MLS,454060,N,Y,37.759839899999996,-122.43893600000001,San Francisco,060750205002003
30,PAST SALE,February-22-2017,Condo/Co-op,3993 Washington St,San Francisco,CA,94118.0,2650000.0,2.0,2.5,Presidio Heights,1945.0,,1905.0,11.0,1362.0,500.0,Sold,,,http://www.redfin.com/CA/San-Francisco/3993-Washington-St-94118/home/1313593,San Francisco MLS,454387,N,Y,37.788284999999995,-122.459025,San Francisco,060750133005001
31,PAST SALE,March-3-2017,Condo/Co-op,1221 Harrison St #28,San Francisco,CA,94103.0,875000.0,1.0,2.0,South of Market,1185.0,,2004.0,2.0,738.0,542.0,Sold,,,http://www.redfin.com/CA/San-Francisco/1221-Harrison-St-94103/unit-28/home/1275616,San Francisco MLS,455189,N,Y,37.7731279,-122.4087672,San Francisco,060750180002032
32,PAST SALE,March-1-2017,Condo/Co-op,631 Folsom St Unit 8C,San Francisco,CA,94107.0,1120000.0,2.0,2.0,Yerba Buena,1054.0,,1945.0,4.0,1063.0,794.0,Sold,,,http://www.redfin.com/CA/San-Francisco/631-Folsom-St-94107/unit-8C/home/21966651,San Francisco MLS,453814,N,Y,37.784817600000004,-122.3969578,San Francisco,060750615002017
33,PAST SALE,February-24-2017,Single Family Residential,1290 Portola Dr,San Francisco,CA,94127.0,1724000.0,3.0,2.5,West Portal,2352.0,5248.0,1925.0,9.0,733.0,,Sold,,,http://www.redfin.com/CA/San-Francisco/1290-Portola-Dr-94127/home/687552,San Francisco MLS,448606,N,Y,37.740226799999995,-122.4632508,San Francisco,060750308001012
34,PAST SALE,February-3-2017,Condo/Co-op,433 MIddle Burnett Ave Unit Middl,San Francisco,CA,94131.0,1079000.0,2.0,2.0,Twin Peaks,,,1975.0,30.0,,,Sold,,,http://www.redfin.com/CA/San-Francisco/433-MIddle-Burnett-Ave-94131/unit-Middl/home/112934171,San Francisco MLS,453785,N,Y,37.755478000000004,-122.443878,San Francisco,060750204022013
35,PAST SALE,February-3-2017,Multi-Family (2-4 Unit),433 Burnett Ave,San Francisco,CA,94131.0,2401000.0,5.0,5.0,Twin Peaks,2466.0,3863.0,1975.0,30.0,974.0,,Sold,,,http://www.redfin.com/CA/San-Francisco/433-Burnett-Ave-94131/home/1895107,San Francisco MLS,453761,N,Y,37.755476,-122.443876,San Francisco,060750204022013
36,PAST SALE,March-1-2017,Single Family Residential,76 Florentine St,San Francisco,CA,94112.0,725000.0,3.0,2.0,Crocker Amazon,1111.0,2500.0,,4.0,653.0,,Sold,,,http://www.redfin.com/CA/San-Francisco/76-Florentine-St-94112/home/795383,San Francisco MLS,449526,N,Y,37.7121864,-122.4436635,San Francisco,060750263012018
37,PAST SALE,February-15-2017,Multi-Family (5+ Unit),258 Valley St,San Francisco,CA,94131.0,1850000.0,5.0,,Noe Valley,3623.0,2962.0,1936.0,18.0,511.0,,Sold,,,http://www.redfin.com/CA/San-Francisco/258-Valley-St-94131/home/1923260,San Francisco MLS,452905,N,Y,37.744661,-122.428097,San Francisco,060750215004000
38,PAST SALE,March-3-2017,Condo/Co-op,425 1st St #5401,SAN FRANCISCO,CA,94105.0,2050000.0,2.0,2.0,SAN FRANCISCO,1042.0,56024.0,2008.0,2.0,1967.0,878.0,Sold,,,http://www.redfin.com/CA/San-Francisco/425-1st-St-94105/unit-5401/home/17304782,MLSListings,ML81635861,N,Y,37.7861411,-122.392459,San Francisco,060750615004014
39,PAST SALE,March-3-2017,Multi-Family (2-4 Unit),1309 Hayes St,San Francisco,CA,94117.0,2300000.0,8.0,3.0,North Panhandle,4340.0,3436.0,1900.0,2.0,530.0,,Sold,,,http://www.redfin.com/CA/San-Francisco/1309-Hayes-St-94117/home/1676338,San Francisco MLS,453687,N,Y,37.7747126,-122.4383788,San Francisco,060750164002004
40,PAST SALE,February-27-2017,Condo/Co-op,920 Baker St Unit A,San Francisco,CA,94118.0,1030000.0,2.0,1.0,Anza Vista,950.0,,2003.0,6.0,1084.0,300.0,Sold,,,http://www.redfin.com/CA/San-Francisco/920-Baker-St-94115/unit-A/home/879524,San Francisco MLS,453811,N,Y,37.7797615,-122.44151140000001,San Francisco,060750157001008
41,PAST SALE,February-24-2017,Single Family Residential,440 Myra Way,San Francisco,CA,94127.0,1175000.0,2.0,1.0,Miraloma Park,1087.0,2117.0,1949.0,9.0,1081.0,,Sold,,,http://www.redfin.com/CA/San-Francisco/440-Myra-Way-94127/home/688188,San Francisco MLS,453847,N,Y,37.737171999999994,-122.452584,San Francisco,060750307003002
42,PAST SALE,February-7-2017,Condo/Co-op,444 Collingwood St,San Francisco,CA,94114.0,2100000.0,3.0,3.0,Eureka Valley/Dolore,2383.0,,1968.0,26.0,881.0,350.0,Sold,,,http://www.redfin.com/CA/San-Francisco/444-Collingwood-St-94114/home/40625934,San Francisco MLS,453832,N,Y,37.75524,-122.4359,San Francisco,060750212001001
43,PAST SALE,March-3-2017,Single Family Residential,51 Nebraska St,SAN FRANCISCO,CA,94110.0,1450000.0,4.0,2.0,SAN FRANCISCO,1785.0,2500.0,1970.0,2.0,812.0,,Sold,,,http://www.redfin.com/CA/San-Francisco/51-Nebraska-St-94110/home/1955879,MLSListings,ML81637034,N,Y,37.740486100000005,-122.4102898,San Francisco,060750251003033
44,PAST SALE,March-2-2017,Single Family Residential,351 Lakeshore Dr,San Francisco,CA,94132.0,1630000.0,4.0,3.5,Lake Shore,1995.0,3136.0,1952.0,3.0,817.0,,Sold,,,http://www.redfin.com/CA/San-Francisco/351-Lakeshore-Dr-94132/home/1923617,San Francisco MLS,454377,N,Y,37.73258,-122.4973,San Francisco,060750331003005
45,PAST SALE,February-28-2017,Condo/Co-op,118 Eureka St,San Francisco,CA,94114.0,1525000.0,2.0,1.5,Eureka Valley/Dolore,1335.0,,,5.0,1142.0,260.0,Sold,,,http://www.redfin.com/CA/San-Francisco/118-Eureka-St-94114/home/12276959,San Francisco MLS,453371,N,Y,37.760277,-122.438542,San Francisco,060750205002003
46,PAST SALE,March-3-2017,Single Family Residential,4348 23rd St,San Francisco,CA,94114.0,4120000.0,4.0,3.5,Noe Valley,3408.0,2848.0,1901.0,2.0,1209.0,,Sold,,,http://www.redfin.com/CA/San-Francisco/4348-23rd-St-94114/home/2027279,San Francisco MLS,454038,N,Y,37.752806,-122.439747,San Francisco,060750212003005
47,PAST SALE,February-16-2017,Condo/Co-op,1754 Larkin St #5,San Francisco,CA,94109.0,790000.0,1.0,1.0,Nob Hill,,,1910.0,17.0,,275.0,Sold,,,http://www.redfin.com/CA/San-Francisco/1754-Larkin-St-94109/unit-5/home/11892981,San Francisco MLS,453368,N,Y,37.794201,-122.41945600000001,San Francisco,060750110002005
48,PAST SALE,March-3-2017,Vacant Land,3310-3316 Mission St,San Francisco,CA,94110.0,2200000.0,,,Bernal Heights,,4573.0,,2.0,,,Sold,,,http://www.redfin.com/CA/San-Francisco/3316-Mission-St-94110/home/109321590,San Francisco MLS,451808,N,Y,37.7438864,-122.4215027,San Francisco,060750253003000
49,PAST SALE,February-28-2017,Single Family Residential,379 Lakeshore Dr,San Francisco,CA,94132.0,1260000.0,3.0,1.0,Lake Shore,1416.0,3219.0,1952.0,5.0,890.0,,Sold,,,http://www.redfin.com/CA/San-Francisco/379-Lakeshore-Dr-94132/home/1990970,San Francisco MLS,452742,N,Y,37.733053399999996,-122.4967717,San Francisco,060750331003005
50,PAST SALE,February-16-2017,Multi-Family (2-4 Unit),3708-3710 Sacramento St,San Francisco,CA,94118.0,2850000.0,4.0,2.0,Presidio Heights,2743.0,2567.0,1900.0,17.0,1039.0,,Sold,,,http://www.redfin.com/CA/San-Francisco/3710-Sacramento-St-94118/home/1942643,San Francisco MLS,453246,N,Y,37.7874248,-122.4539873,San Francisco,060750133004010
51,PAST SALE,February-3-2017,Condo/Co-op,2225 23rd St #403,San Francisco,CA,94107.0,545000.0,1.0,1.0,Potrero Hill,458.0,,1989.0,30.0,1190.0,450.0,Sold,,,http://www.redfin.com/CA/San-Francisco/2225-23rd-St-94107/unit-403/home/1309651,San Francisco MLS,453554,N,Y,37.7543745,-122.40215559999999,San Francisco,060750614001007
52,PAST SALE,February-3-2017,Condo/Co-op,35 Dolores St #107,San Francisco,CA,94103.0,1540000.0,2.0,2.0,Mission Dolores,1163.0,,2015.0,30.0,1324.0,507.0,Sold,,,http://www.redfin.com/CA/San-Francisco/35-Dolores-St-94103/unit-107/home/67340010,San Francisco MLS,452942,N,Y,37.7686054,-122.42653429999999,San Francisco,060750202002002
53,PAST SALE,February-17-2017,Condo/Co-op,631 Folsom St Unit 6C,San Francisco,CA,94107.0,1105000.0,2.0,2.0,Yerba Buena,1054.0,,2009.0,16.0,1048.0,794.0,Sold,,,http://www.redfin.com/CA/San-Francisco/631-Folsom-St-94107/unit-6C/home/21965628,San Francisco MLS,453846,N,Y,37.784817600000004,-122.3969578,San Francisco,060750615002017
54,PAST SALE,March-3-2017,Single Family Residential,990 Randolph St,San Francisco,CA,94132.0,960000.0,2.0,1.0,Ingleside Heights,1375.0,2526.0,1940.0,2.0,698.0,,Sold,,,http://www.redfin.com/CA/San-Francisco/990-Randolph-St-94132/home/1769585,San Francisco MLS,453821,N,Y,37.714920899999996,-122.47123,San Francisco,060750313022006
55,PAST SALE,February-17-2017,Single Family Residential,219 Crescent Ave,San Francisco,CA,94110.0,1285000.0,2.0,2.5,Bernal Heights,1250.0,2495.0,,16.0,1028.0,,Sold,,,http://www.redfin.com/CA/San-Francisco/219-Crescent-Ave-94110/home/2011617,San Francisco MLS,453511,N,Y,37.735258,-122.41971699999999,San Francisco,060750254032010
56,PAST SALE,February-28-2017,Single Family Residential,351 Niagara,San Francisco,CA,94112.0,980000.0,2.0,1.0,Outer Mission,1211.0,,1939.0,5.0,809.0,,Sold,,,http://www.redfin.com/CA/San-Francisco/351-Niagara-Ave-94112/home/2022588,San Francisco MLS,453942,N,Y,37.719031099999995,-122.44691759999999,San Francisco,060750261003007
57,PAST SALE,March-2-2017,Condo/Co-op,2231 15th St,San Francisco,CA,94114.0,2630000.0,3.0,3.0,Duboce Triangle,2142.0,,1900.0,3.0,1228.0,467.0,Sold,,,http://www.redfin.com/CA/San-Francisco/2231-15th-St-94114/home/1413093,San Francisco MLS,453759,N,Y,37.7656701,-122.43398529999999,San Francisco,060750169002003
58,PAST SALE,February-3-2017,Condo/Co-op,433 Upper Burnett Ave,San Francisco,CA,94131.0,1322000.0,2.0,2.0,Twin Peaks,,,1975.0,30.0,,,Sold,,,http://www.redfin.com/CA/San-Francisco/433-Burnett-Ave-94131/Uppr/home/112933722,San Francisco MLS,453780,N,Y,37.755476,-122.443876,San Francisco,060750204022013
59,PAST SALE,February-9-2017,Single Family Residential,712 Brazil Ave,San Francisco,CA,94112.0,710000.0,4.0,2.0,Excelsior,1350.0,2500.0,1900.0,24.0,526.0,,Sold,,,http://www.redfin.com/CA/San-Francisco/712-Brazil-Ave-94112/home/1336367,San Francisco MLS,448727,N,Y,37.721804399999996,-122.42908020000002,San Francisco,060750260031010
60,PAST SALE,February-7-2017,Condo/Co-op,2192 Pacific Ave,San Francisco,CA,94115.0,1625000.0,2.0,2.0,Pacific Heights,1494.0,,1950.0,26.0,1088.0,467.0,Sold,,,http://www.redfin.com/CA/San-Francisco/2192-Pacific-Ave-94115/unit-2192/home/1554670,San Francisco MLS,452291,N,Y,37.7939429,-122.43119820000001,San Francisco,060750132001005
61,PAST SALE,February-9-2017,Condo/Co-op,809-811 Pierce #809,San Francisco,CA,94117.0,1350000.0,3.0,2.0,Alamo Square,1800.0,,1894.0,24.0,750.0,,Sold,,,http://www.redfin.com/CA/San-Francisco/811-Pierce-St-94117/unit-809/home/113068771,San Francisco MLS,454491,N,Y,37.7777305,-122.4350874,San Francisco,060750158022001
62,PAST SALE,February-9-2017,Condo/Co-op,1650 Broadway #602,San Francisco,CA,94109.0,3725000.0,3.0,3.0,Pacific Heights,1943.0,,2016.0,24.0,1917.0,1129.0,Sold,,,http://www.redfin.com/CA/San-Francisco/1650-Broadway-94109/unit-602/home/108439763,San Francisco MLS,448402,N,Y,37.795913,-122.424471,San Francisco,060750131011000
63,PAST SALE,February-28-2017,Condo/Co-op,2200 Pacific Ave Unit 3D,San Francisco,CA,94115.0,1540000.0,2.0,2.0,Pacific Heights,1850.0,,1962.0,5.0,832.0,1150.0,Sold,,,http://www.redfin.com/CA/San-Francisco/2200-Pacific-Ave-94115/unit-3D/home/566793,San Francisco MLS,449888,N,Y,37.7939042,-122.4317493,San Francisco,060750132001004
64,PAST SALE,February-24-2017,Single Family Residential,3060 Pacific Ave,San Francisco,CA,94115.0,10250000.0,6.0,5.5,Pacific Heights,,,1927.0,9.0,,,Sold,,,http://www.redfin.com/CA/San-Francisco/3060-Pacific-Ave-94115/home/1199174,San Francisco MLS,454281,N,Y,37.792233,-122.445654,San Francisco,060750132003014
65,PAST SALE,February-27-2017,Single Family Residential,145 Joost Ave,San Francisco,CA,94131.0,1800000.0,4.0,2.5,Sunnyside,2575.0,2495.0,1978.0,6.0,699.0,,Sold,,,http://www.redfin.com/CA/San-Francisco/145-Joost-Ave-94131/home/1607390,San Francisco MLS,453762,N,Y,37.7322071,-122.43857220000001,San Francisco,060750311001012
66,PAST SALE,February-24-2017,Single Family Residential,232 Corbett Ave,San Francisco,CA,94114.0,2160000.0,2.0,2.5,Corona Heights,1900.0,1694.0,1914.0,9.0,1137.0,,Sold,,,http://www.redfin.com/CA/San-Francisco/232-Corbett-Ave-94114/home/1147990,San Francisco MLS,452527,N,Y,37.7616352,-122.44350379999999,San Francisco,060750204013003
67,PAST SALE,February-24-2017,Single Family Residential,371 Douglass St,San Francisco,CA,94114.0,2450000.0,3.0,2.5,Eureka Valley/Dolore,2005.0,3123.0,1914.0,9.0,1222.0,,Sold,,,http://www.redfin.com/CA/San-Francisco/371-Douglass-St-94114/home/1042755,San Francisco MLS,453823,N,Y,37.757900899999996,-122.438753,San Francisco,060750205003001
68,PAST SALE,February-24-2017,Single Family Residential,124 Lily St,San Francisco,CA,94102.0,3250000.0,4.0,3.5,San Francisco County,2798.0,1394.0,2009.0,9.0,1162.0,,Sold,,,http://www.redfin.com/CA/San-Francisco/124-Lily-St-94102/home/25675664,BAREIS,21701769,N,Y,37.7746039,-122.423077,San Francisco,060750168021002
69,PAST SALE,March-3-2017,Condo/Co-op,2002 3rd St #219,San Francisco,CA,94107.0,995000.0,2.0,2.0,Central Waterfront,1139.0,,2002.0,2.0,874.0,467.0,Sold,,,http://www.redfin.com/CA/San-Francisco/2002-3rd-St-94107/unit-219/home/12397994,San Francisco MLS,453715,N,Y,37.7639982,-122.38915060000001,San Francisco,060750226001011
70,PAST SALE,February-24-2017,Multi-Family (2-4 Unit),78-80 Barcelona Ave,San Francisco,CA,94115.0,1800000.0,4.0,2.0,Anza Vista,2934.0,4038.0,1948.0,9.0,613.0,,Sold,,,http://www.redfin.com/CA/San-Francisco/80-Barcelona-Ave-94115/home/1937683,San Francisco MLS,451901,N,Y,37.7807942,-122.4444746,San Francisco,060750157001011
71,PAST SALE,February-3-2017,Single Family Residential,2659 23rd Ave,San Francisco,CA,94116.0,961000.0,2.0,2.0,Parkside,1550.0,3197.0,1925.0,30.0,620.0,,Sold,,,http://www.redfin.com/CA/San-Francisco/2659-23rd-Ave-94116/home/1478146,San Francisco MLS,453758,N,Y,37.737975,-122.47996499999999,San Francisco,060750330003004
72,PAST SALE,February-16-2017,Multi-Family (2-4 Unit),4533 18th St,San Francisco,CA,94114.0,2620000.0,5.0,3.0,Eureka Valley/Dolore,3560.0,2692.0,1930.0,17.0,736.0,,Sold,,,http://www.redfin.com/CA/San-Francisco/4533-18th-St-94114/home/675845,San Francisco MLS,450651,N,Y,37.760397,-122.4402145,San Francisco,060750204013013
73,PAST SALE,February-17-2017,Single Family Residential,478 Anderson St,San Francisco,CA,94110.0,1080000.0,2.0,2.0,Bernal Heights,1155.0,1751.0,1914.0,16.0,935.0,,Sold,,,http://www.redfin.com/CA/San-Francisco/478-Anderson-St-94110/home/765195,San Francisco MLS,453729,N,Y,37.7374501,-122.4155007,San Francisco,060750254021003
74,PAST SALE,February-24-2017,Condo/Co-op,1587 15th St #401,San Francisco,CA,94103.0,965000.0,2.0,1.0,Inner Mission,1048.0,,2007.0,9.0,921.0,591.0,Sold,,,http://www.redfin.com/CA/San-Francisco/1587-15th-St-94103/unit-401/home/12277624,San Francisco MLS,453567,N,Y,37.766489,-122.41949,San Francisco,060750201003003
75,PAST SALE,February-17-2017,Condo/Co-op,3051 b California,San Francisco,CA,94115.0,2050000.0,3.0,4.0,Pacific Heights,2047.0,,,16.0,1001.0,433.0,Sold,,,http://www.redfin.com/CA/San-Francisco/3051-California-St-94115/unit-A/home/55750719,San Francisco MLS,451183,N,Y,37.787233,-122.444557,San Francisco,060750154001000
76,PAST SALE,February-22-2017,Condo/Co-op,1570 Chestnut St,San Francisco,CA,94123.0,1825000.0,2.0,1.0,Marina,,,1923.0,11.0,,270.0,Sold,,,http://www.redfin.com/CA/San-Francisco/1570-Chestnut-St-94123/home/559869,San Francisco MLS,453902,N,Y,37.801997,-122.429221,San Francisco,060750129012003
77,PAST SALE,March-1-2017,Condo/Co-op,4165 Cesar Chavez St,San Francisco,CA,94131.0,1420000.0,3.0,2.0,Noe Valley,,,1977.0,4.0,,250.0,Sold,,,http://www.redfin.com/CA/San-Francisco/4165-Cesar-Chavez-St-94131/home/12243791,San Francisco MLS,454123,N,Y,37.747102000000005,-122.43274,San Francisco,060750216001000
78,PAST SALE,February-21-2017,Single Family Residential,218 Ordway St,San Francisco,CA,94134.0,722000.0,2.0,1.0,Visitacion Valley,836.0,1873.0,1952.0,12.0,864.0,,Sold,,,http://www.redfin.com/CA/San-Francisco/218-Ordway-St-94134/home/1591906,San Francisco MLS,453172,N,Y,37.7199527,-122.40304420000001,San Francisco,060750259003001
79,PAST SALE,March-3-2017,Condo/Co-op,855 Folsom St #929,San Francisco,CA,94107.0,905000.0,1.0,1.0,Yerba Buena,,,2001.0,2.0,,518.0,Sold,,,http://www.redfin.com/CA/San-Francisco/855-Folsom-St-94107/unit-929/home/12398161,San Francisco MLS,453863,N,Y,37.780773700000005,-122.4021633,San Francisco,060750178012004
80,PAST SALE,February-3-2017,Single Family Residential,61 Prosper St,San Francisco,CA,94114.0,3225000.0,4.0,2.0,Eureka Valley/Dolore,2874.0,2000.0,1890.0,30.0,1122.0,,Sold,,,http://www.redfin.com/CA/San-Francisco/61-Prosper-St-94114/home/1855166,San Francisco MLS,453804,N,Y,37.763375399999994,-122.43137420000001,San Francisco,060750203002002
81,PAST SALE,February-3-2017,Single Family Residential,555 Athens St,San Francisco,CA,94112.0,948000.0,2.0,1.25,Excelsior,1500.0,2500.0,1925.0,30.0,632.0,,Sold,,,http://www.redfin.com/CA/San-Francisco/555-Athens-St-94112/home/1167656,San Francisco MLS,450813,N,Y,37.719099,-122.430006,San Francisco,060750260032002
82,PAST SALE,February-3-2017,Single Family Residential,624 Brussels St,San Francisco,CA,94134.0,785000.0,2.0,1.0,Portola,1125.0,3000.0,1910.0,30.0,698.0,,Sold,,,http://www.redfin.com/CA/San-Francisco/624-Brussels-St-94134/home/780041,San Francisco MLS,452834,N,Y,37.724268,-122.40473100000001,San Francisco,060750258001002
83,PAST SALE,March-2-2017,Condo/Co-op,260 King St #517,San Francisco,CA,94107.0,688000.0,1.0,1.0,Mission Bay,759.0,,2004.0,3.0,906.0,716.0,Sold,,,http://www.redfin.com/CA/San-Francisco/260-King-St-94107/unit-517/home/12331050,San Francisco MLS,453614,N,Y,37.7772049,-122.3940134,San Francisco,060750607001006
84,PAST SALE,February-28-2017,Condo/Co-op,4057 23rd St,San Francisco,CA,94114.0,1652000.0,2.0,3.0,Noe Valley,1553.0,,1906.0,5.0,1064.0,256.0,Sold,,,http://www.redfin.com/CA/San-Francisco/4057-23rd-St-94114/home/12353043,San Francisco MLS,454286,N,Y,37.752779600000004,-122.433249,San Francisco,060750211003002
85,PAST SALE,March-2-2017,Condo/Co-op,870 North Point St #202,San Francisco,CA,94109.0,2118000.0,3.0,2.0,Russian Hill,1511.0,,1995.0,3.0,1402.0,754.0,Sold,,,http://www.redfin.com/CA/San-Francisco/870-N-Point-St-94109/unit-202/home/1152639,San Francisco MLS,453757,N,Y,37.8058155,-122.4215375,San Francisco,060750102001010
86,PAST SALE,February-21-2017,Condo/Co-op,1792 Green St,San Francisco,CA,94123.0,1150000.0,2.0,1.0,Pacific Heights,1012.0,,1922.0,12.0,1136.0,375.0,Sold,,,http://www.redfin.com/CA/San-Francisco/1792-Green-St-94123/home/17305244,San Francisco MLS,454992,N,Y,37.7971974,-122.42852749999999,San Francisco,060750130002003
87,PAST SALE,February-8-2017,Condo/Co-op,2225 23rd St #118,San Francisco,CA,94107.0,615000.0,1.0,1.0,Potrero Hill,602.0,,1989.0,25.0,1022.0,471.0,Sold,,,http://www.redfin.com/CA/San-Francisco/2225-23rd-St-94107/unit-118/home/735718,San Francisco MLS,453112,N,Y,37.7543745,-122.40215559999999,San Francisco,060750614001007
88,PAST SALE,February-6-2017,Condo/Co-op,1169 Dolores St,San Francisco,CA,94110.0,1550000.0,3.0,2.0,Noe Valley,,,,27.0,,,Sold,,,http://www.redfin.com/CA/San-Francisco/1169-Dolores-St-94110/home/12277328,San Francisco MLS,454374,N,Y,37.750752,-122.424622,San Francisco,060750210003005
89,PAST SALE,February-21-2017,Single Family Residential,506 Banks St,San Francisco,CA,94110.0,820000.0,2.0,1.0,Bernal Heights,1000.0,1751.0,1925.0,12.0,820.0,,Sold,,,http://www.redfin.com/CA/San-Francisco/506-Banks-St-94110/home/1362522,San Francisco MLS,454960,N,Y,37.7368549,-122.4130757,San Francisco,060750254022007
90,PAST SALE,March-2-2017,Condo/Co-op,564 Shotwell St,San Francisco,CA,94110.0,1530000.0,3.0,2.0,Inner Mission,1569.0,,1928.0,3.0,975.0,400.0,Sold,,,http://www.redfin.com/CA/San-Francisco/564-Shotwell-St-94110/home/852565,San Francisco MLS,454010,N,Y,37.7594596,-122.41603629999999,San Francisco,060750228013003
91,PAST SALE,February-10-2017,Condo/Co-op,201 Harrison St #909,San Francisco,CA,94105.0,725000.0,1.0,1.0,South Beach,661.0,,1991.0,23.0,1097.0,632.0,Sold,,,http://www.redfin.com/CA/San-Francisco/201-Harrison-St-94105/unit-909/home/724650,San Francisco MLS,453818,N,Y,37.7876582,-122.3905155,San Francisco,060750615004010
92,PAST SALE,February-10-2017,Single Family Residential,1311 Buchanan St,San Francisco,CA,94115.0,1200000.0,3.0,2.0,Western Addition,,,2007.0,23.0,,,Sold,,,http://www.redfin.com/CA/San-Francisco/1311-Buchanan-St-94115/home/17306819,San Francisco MLS,453463,N,Y,37.7822938,-122.42929290000001,San Francisco,060750159001003
93,PAST SALE,March-3-2017,Condo/Co-op,439 Arkansas St,San Francisco,CA,94107.0,2340000.0,3.0,2.0,Potrero Hill,2307.0,,1980.0,2.0,1014.0,275.0,Sold,,,http://www.redfin.com/CA/San-Francisco/439-Arkansas-St-94107/home/21666627,San Francisco MLS,454056,N,Y,37.760722799999996,-122.3980419,San Francisco,060750227022007
94,PAST SALE,February-10-2017,Single Family Residential,26 St Marys Ave,San Francisco,CA,94112.0,1155000.0,2.0,1.0,Bernal Heights,,2045.0,1904.0,23.0,,,Sold,,,http://www.redfin.com/CA/San-Francisco/26-Saint-Marys-Ave-94112/home/917006,San Francisco MLS,453734,N,Y,37.734342,-122.4265,San Francisco,060750254031013
95,PAST SALE,February-15-2017,Condo/Co-op,2827 Pierce St,San Francisco,CA,94123.0,1990000.0,3.0,3.0,Cow Hollow,1886.0,,1939.0,18.0,1055.0,693.0,Sold,,,http://www.redfin.com/CA/San-Francisco/2827-Pierce-St-94123/home/1925847,San Francisco MLS,453935,N,Y,37.796101,-122.438994,San Francisco,060750128001017
96,PAST SALE,February-23-2017,Condo/Co-op,420 Mission Bay Blvd #1203,San Francisco,CA,94158.0,1835000.0,2.0,2.0,Mission Bay,,,2012.0,10.0,,812.0,Sold,,,http://www.redfin.com/CA/San-Francisco/420-Mission-Bay-Blvd-N-94158/unit-1203/home/40519694,San Francisco MLS,453329,N,Y,37.771217799999995,-122.38792520000001,San Francisco,060750607001025
97,PAST SALE,February-24-2017,Condo/Co-op,246 2nd St #905,San Francisco,CA,94111.0,810000.0,1.0,1.0,Yerba Buena,650.0,,2000.0,9.0,1246.0,532.0,Sold,,,http://www.redfin.com/CA/San-Francisco/246-2nd-St-94105/unit-905/home/877585,San Francisco MLS,454294,N,Y,37.7857744,-122.39736570000001,San Francisco,060750615002011
98,PAST SALE,March-1-2017,Condo/Co-op,33 Pond St,San Francisco,CA,94114.0,1435000.0,2.0,2.0,Eureka Valley/Dolore,,,1900.0,4.0,,356.0,Sold,,,http://www.redfin.com/CA/San-Francisco/33-Pond-St-94114/home/1121153,San Francisco MLS,454178,N,Y,37.763709999999996,-122.432051,San Francisco,060750203002003
99,PAST SALE,February-28-2017,Townhouse,425 14th St #5,San Francisco,CA,94103.0,1955000.0,3.0,2.5,Mission Dolores,1952.0,,2001.0,5.0,1002.0,698.0,Sold,,,http://www.redfin.com/CA/San-Francisco/425-14th-St-94103/unit-5/home/1329518,San Francisco MLS,453525,N,Y,37.7678924,-122.4228112,San Francisco,060750202002005
100,PAST SALE,February-24-2017,Condo/Co-op,8200 Oceanview Ter #420,San Francisco,CA,94132.0,650000.0,2.0,2.0,Ingleside Heights,948.0,,2002.0,9.0,686.0,484.0,Sold,,,http://www.redfin.com/CA/San-Francisco/8200-Ocean-View-Ter-94132/unit-420/home/1762299,San Francisco MLS,454902,N,Y,37.710275,-122.4674343,San Francisco,060750313023017
101,PAST SALE,March-3-2017,Single Family Residential,2471 41st Ave,San Francisco,CA,94116.0,950000.0,2.0,1.0,Outer Parkside,962.0,2996.0,1947.0,2.0,988.0,,Sold,,,http://www.redfin.com/CA/San-Francisco/2471-41st-Ave-94116/home/1992850,San Francisco MLS,451861,N,Y,37.740684,-122.499498,San Francisco,060750353005000
102,PAST SALE,February-3-2017,Multi-Family (2-4 Unit),4839-4841 Mission St,San Francisco,CA,94112.0,825000.0,2.0,1.0,Excelsior,1925.0,2086.0,1909.0,30.0,429.0,,Sold,,,http://www.redfin.com/CA/San-Francisco/4839-Mission-St-94112/home/108517072,San Francisco MLS,448780,N,Y,37.7208102,-122.43733300000001,San Francisco,060750260041000
103,PAST SALE,February-28-2017,Single Family Residential,639 Joost Ave,San Francisco,CA,94127.0,1607000.0,4.0,2.0,Sunnyside,2443.0,2495.0,1900.0,5.0,658.0,,Sold,,,http://www.redfin.com/CA/San-Francisco/639-Joost-Ave-94127/home/1063521,San Francisco MLS,454194,N,Y,37.732089,-122.449795,San Francisco,060750311005007
104,PAST SALE,February-28-2017,Single Family Residential,1462 Newcomb Ave,San Francisco,CA,94124.0,800000.0,2.0,2.0,Bayview,1746.0,2500.0,1922.0,5.0,458.0,,Sold,,,http://www.redfin.com/CA/San-Francisco/1462-Newcomb-Ave-94124/home/1353088,San Francisco MLS,453369,N,Y,37.733969,-122.38703999999998,San Francisco,060750231022001
105,PAST SALE,February-3-2017,Multi-Family (2-4 Unit),255-257 Connecticut St,San Francisco,CA,94107.0,2150000.0,5.0,2.0,Potrero Hill,,3998.0,1914.0,30.0,,,Sold,,,http://www.redfin.com/CA/San-Francisco/257-Connecticut-St-94107/home/1868363,San Francisco MLS,453081,N,Y,37.763084899999996,-122.39727859999998,San Francisco,060750227021006
106,PAST SALE,February-24-2017,Multi-Family (5+ Unit),3800 Mission St,San Francisco,CA,94110.0,1850000.0,4.0,,Bernal Heights,4610.0,2495.0,1910.0,9.0,401.0,,Sold,,,http://www.redfin.com/CA/San-Francisco/3800-Mission-St-94110/home/108416726,San Francisco MLS,448248,N,Y,37.7359309,-122.424525,San Francisco,060750254031001
107,PAST SALE,February-3-2017,Multi-Family (2-4 Unit),1944-1946 Clement St,San Francisco,CA,94121.0,1627000.0,,,Central Richmond,3500.0,2500.0,,30.0,465.0,,Sold,,,http://www.redfin.com/CA/San-Francisco/1944-Clement-St-94121/home/109837092,San Francisco MLS,452557,N,Y,37.7824515,-122.480377,San Francisco,060750426012006
108,PAST SALE,February-10-2017,Single Family Residential,160 Swiss Ave,San Francisco,CA,94131.0,1860000.0,3.0,2.0,Glen Park,1575.0,2491.0,1961.0,23.0,1181.0,,Sold,,,http://www.redfin.com/CA/San-Francisco/160-Swiss-Ave-94131/home/1891115,San Francisco MLS,453248,N,Y,37.7359888,-122.43809750000001,San Francisco,060750217002009
109,PAST SALE,March-2-2017,Single Family Residential,45 Montecito Ave,San Francisco,CA,94112.0,1350000.0,2.0,1.0,Westwood Park,1400.0,3375.0,1926.0,3.0,964.0,7.0,Sold,,,http://www.redfin.com/CA/San-Francisco/45-Montecito-Ave-94112/home/692507,San Francisco MLS,454241,N,Y,37.73096339999999,-122.45367479999999,San Francisco,060750310002000
110,PAST SALE,February-7-2017,Condo/Co-op,501 Beale St Unit 4A,San Francisco,CA,94105.0,1225000.0,2.0,2.0,South Beach,1160.0,,2006.0,26.0,1056.0,847.0,Sold,,,http://www.redfin.com/CA/San-Francisco/501-Beale-St-94105/unit-4A/home/8190513,San Francisco MLS,452129,N,Y,37.7862361,-122.38907379999999,San Francisco,060750615006003
111,PAST SALE,February-10-2017,Single Family Residential,335 Flood Ave,San Francisco,CA,94112.0,965000.0,1.0,1.0,Sunnyside,872.0,2809.0,1915.0,23.0,1107.0,,Sold,,,http://www.redfin.com/CA/San-Francisco/335-Flood-Ave-94112/home/2031664,San Francisco MLS,453816,N,Y,37.7296369,-122.44740700000001,San Francisco,060750311004013
112,PAST SALE,March-2-2017,Condo/Co-op,3418 26th St #1,San Francisco,CA,94110.0,520000.0,0.0,1.0,Inner Mission,300.0,,2014.0,3.0,1733.0,480.0,Sold,,,http://www.redfin.com/CA/San-Francisco/3418-26th-St-94110/unit-1/home/110051733,San Francisco MLS,454373,N,Y,37.7491644,-122.41900079999999,San Francisco,060750209003001
113,PAST SALE,February-23-2017,Single Family Residential,960 Noe St,San Francisco,CA,94114.0,1849000.0,3.0,2.0,Noe Valley,,,1911.0,10.0,,,Sold,,,http://www.redfin.com/CA/San-Francisco/960-Noe-St-94114/home/715711,San Francisco MLS,453639,N,Y,37.753547,-122.432321,San Francisco,060750211003001
114,PAST SALE,February-17-2017,Condo/Co-op,1500 Francisco St #11,San Francisco,CA,94123.0,1725000.0,3.0,2.0,Marina,1787.0,,1924.0,16.0,965.0,960.0,Sold,,,http://www.redfin.com/CA/San-Francisco/1500-Francisco-St-94123/unit-11/home/557037,San Francisco MLS,451985,N,Y,37.8027162,-122.43010590000002,San Francisco,060750129022000
115,PAST SALE,February-13-2017,Condo/Co-op,283 Clinton Park,San Francisco,CA,94103.0,1526000.0,3.0,1.0,Mission Dolores,,,,20.0,,250.0,Sold,,,http://www.redfin.com/CA/San-Francisco/283-Clinton-Park-94103/home/28608893,San Francisco MLS,454132,N,Y,37.768915,-122.42645159999998,San Francisco,060750202002002
116,PAST SALE,February-13-2017,Condo/Co-op,1769 Broadway #8,San Francisco,CA,94109.0,1300000.0,2.0,1.0,Pacific Heights,1151.0,,1925.0,20.0,1129.0,749.0,Sold,,,http://www.redfin.com/CA/San-Francisco/1769-Broadway-94109/unit-8/home/113069936,San Francisco MLS,453429,N,Y,37.795108,-122.426207,San Francisco,060750131011002
117,PAST SALE,February-24-2017,Condo/Co-op,1250 Clay St #108,San Francisco,CA,94108.0,865000.0,1.0,1.0,Nob Hill,575.0,,1950.0,9.0,1504.0,485.0,Sold,,,http://www.redfin.com/CA/San-Francisco/1250-Clay-St-94108/unit-108/home/978679,San Francisco MLS,453955,N,Y,37.793565,-122.4136692,San Francisco,060750112001004
118,PAST SALE,February-24-2017,Condo/Co-op,465 10th St #304,San Francisco,CA,94103.0,988000.0,1.0,2.0,South of Market,1016.0,,1924.0,9.0,972.0,754.0,Sold,,,http://www.redfin.com/CA/San-Francisco/465-10th-St-94103/unit-304/home/113012611,San Francisco MLS,453384,N,Y,37.7708827,-122.4099833,San Francisco,060750180002035
119,PAST SALE,February-24-2017,Condo/Co-op,989 20th St #468,San Francisco,CA,94107.0,849000.0,1.0,1.5,Central Waterfront,835.0,,2009.0,9.0,1017.0,479.0,Sold,,,http://www.redfin.com/CA/San-Francisco/989-20th-St-94107/unit-468/home/40142845,San Francisco MLS,453595,N,Y,37.7601821,-122.3909801,San Francisco,060750226002005
120,PAST SALE,February-14-2017,Single Family Residential,276 Grand View Ave,San Francisco,CA,94114.0,1050000.0,2.0,1.5,Noe Valley,,,1908.0,19.0,,,Sold,,,http://www.redfin.com/CA/San-Francisco/276-Grand-View-Ave-94114/home/674978,San Francisco MLS,454668,N,Y,37.753825899999995,-122.4417044,San Francisco,060750204022005
121,PAST SALE,February-14-2017,Single Family Residential,199 Cresta Vista Dr,San Francisco,CA,94127.0,1150000.0,2.0,1.5,Westwood Highlands,1026.0,2665.0,1968.0,19.0,1121.0,,Sold,,,http://www.redfin.com/CA/San-Francisco/199-Cresta-Vista-Dr-94127/home/1702389,San Francisco MLS,453616,N,Y,37.7356203,-122.4555115,San Francisco,060750307003011
122,PAST SALE,February-22-2017,Single Family Residential,39 Bronte St,San Francisco,CA,94110.0,1300000.0,3.0,2.0,Bernal Heights,1360.0,1680.0,1956.0,11.0,956.0,,Sold,,,http://www.redfin.com/CA/San-Francisco/39-Bronte-St-94110/home/763479,San Francisco MLS,453243,N,Y,37.7390652,-122.4100574,San Francisco,060750251003034
123,PAST SALE,February-14-2017,Single Family Residential,43 Douglass St,San Francisco,CA,94114.0,1952000.0,2.0,2.0,Corona Heights,1814.0,,1905.0,19.0,1076.0,78.0,Sold,,,http://www.redfin.com/CA/San-Francisco/43-Douglass-St-94114/home/40275396,San Francisco MLS,453949,N,Y,37.7630052,-122.4393717,San Francisco,060750170002009
124,PAST SALE,February-3-2017,Single Family Residential,649 Mississippi St,San Francisco,CA,94107.0,1375000.0,3.0,2.0,Potrero Hill,1593.0,2495.0,1928.0,30.0,863.0,,Sold,,,http://www.redfin.com/CA/San-Francisco/649-Mississippi-St-94107/home/1990004,San Francisco MLS,453177,N,Y,37.758351,-122.39386699999999,San Francisco,060750614002001
125,PAST SALE,February-3-2017,Single Family Residential,2401 Taraval St,San Francisco,CA,94116.0,1375000.0,2.0,1.0,Parkside,1325.0,3249.0,1924.0,30.0,1038.0,,Sold,,,http://www.redfin.com/CA/San-Francisco/2401-Taraval-St-94116/home/1782104,San Francisco MLS,449961,N,Y,37.7421404,-122.49190109999999,San Francisco,060750330005006
126,PAST SALE,February-15-2017,Single Family Residential,457 Roosevelt Way,San Francisco,CA,94114.0,1650000.0,2.0,2.0,Corona Heights,1880.0,2883.0,1912.0,18.0,878.0,,Sold,,,http://www.redfin.com/CA/San-Francisco/457-Roosevelt-Way-94114/home/1725718,San Francisco MLS,453683,N,Y,37.763789,-122.442644,San Francisco,060750170002002
127,PAST SALE,February-15-2017,Single Family Residential,78 Anderson St,San Francisco,CA,94110.0,1865020.0,4.0,2.0,Bernal Heights,1519.0,1750.0,1915.0,18.0,1228.0,,Sold,,,http://www.redfin.com/CA/San-Francisco/78-Anderson-St-94110/home/2014371,San Francisco MLS,453913,N,Y,37.741905700000004,-122.41527279999998,San Francisco,060750252004003
128,PAST SALE,February-13-2017,Single Family Residential,1595 Thomas Ave,SAN FRANCISCO,CA,94124.0,770000.0,3.0,1.0,SAN FRANCISCO,1774.0,2500.0,1907.0,20.0,434.0,,Sold,,,http://www.redfin.com/CA/San-Francisco/1595-Thomas-Ave-94124/home/984593,MLSListings,ML81628605,N,Y,37.7301899,-122.39131780000001,San Francisco,060750232001004
129,PAST SALE,March-2-2017,Condo/Co-op,942 Market St #502,San Francisco,CA,94102.0,650000.0,0.0,1.0,Downtown,728.0,,1908.0,3.0,893.0,610.0,Sold,,,http://www.redfin.com/CA/San-Francisco/942-Market-St-94102/unit-502/home/21999832,San Francisco MLS,453968,N,Y,37.7836702,-122.40879140000001,San Francisco,060750125012004
130,PAST SALE,February-15-2017,Condo/Co-op,62 Ramona Ave,San Francisco,CA,94103.0,1210000.0,2.0,1.0,Mission Dolores,1384.0,,1912.0,18.0,874.0,200.0,Sold,,,http://www.redfin.com/CA/San-Francisco/62-Ramona-Ave-94103/home/925484,San Francisco MLS,453594,N,Y,37.7670721,-122.4255221,San Francisco,060750202002009
131,PAST SALE,February-28-2017,Condo/Co-op,1335 Laguna St #6,San Francisco,CA,94115.0,580000.0,2.0,1.0,Western Addition,840.0,,1964.0,5.0,690.0,746.0,Sold,,,http://www.redfin.com/CA/San-Francisco/1335-Laguna-St-94115/unit-6/home/12401362,San Francisco MLS,453349,N,Y,37.7834886,-122.4278332,San Francisco,060750159001003
132,PAST SALE,February-9-2017,Condo/Co-op,200 Brannan St #222,San Francisco,CA,94107.0,880000.0,1.0,1.0,South Beach,850.0,,2004.0,24.0,1035.0,615.0,Sold,,,http://www.redfin.com/CA/San-Francisco/200-Brannan-St-94107/unit-222/home/1206584,San Francisco MLS,451977,N,Y,37.7835714,-122.3907007,San Francisco,060750615006006
133,PAST SALE,February-14-2017,Condo/Co-op,300 Ivy St #500,San Francisco,CA,94102.0,1480000.0,2.0,2.0,Hayes Valley,1075.0,,2014.0,19.0,1377.0,610.0,Sold,,,http://www.redfin.com/CA/San-Francisco/300-Ivy-St-94102/unit-500/home/52861692,San Francisco MLS,453803,N,Y,37.777438200000006,-122.42343000000001,San Francisco,060750162001004
134,PAST SALE,February-15-2017,Single Family Residential,2651 Bryant St,San Francisco,CA,94110.0,1415000.0,3.0,1.0,Inner Mission,1500.0,2421.0,1930.0,18.0,943.0,,Sold,,,http://www.redfin.com/CA/San-Francisco/2651-Bryant-St-94110/home/926025,San Francisco MLS,453856,N,Y,37.751983,-122.40880459999998,San Francisco,060750229031004
135,PAST SALE,February-15-2017,Condo/Co-op,1011 Clayton St,San Francisco,CA,94117.0,1450000.0,2.0,1.0,Buena Vista Park,1305.0,,1933.0,18.0,1111.0,166.0,Sold,,,http://www.redfin.com/CA/San-Francisco/1011-Clayton-St-94117/home/1077130,San Francisco MLS,453585,N,Y,37.763659999999994,-122.44746599999999,San Francisco,060750171012005
136,PAST SALE,February-10-2017,Single Family Residential,51 W View Ave,SAN FRANCISCO,CA,94134.0,732000.0,3.0,1.0,SAN FRANCISCO,850.0,1799.0,1943.0,23.0,861.0,,Sold,,,http://www.redfin.com/CA/San-Francisco/51-W-View-Ave-94134/home/1961466,MLSListings,ML81635440,N,Y,37.7312191,-122.4180182,San Francisco,060750257011000
137,PAST SALE,February-10-2017,Condo/Co-op,821 Folsom St #210,San Francisco,CA,94107.0,760000.0,1.0,1.0,Yerba Buena,717.0,,2004.0,23.0,1060.0,464.0,Sold,,,http://www.redfin.com/CA/San-Francisco/821-Folsom-St-94107/unit-210/home/12401617,San Francisco MLS,453926,N,Y,37.781408500000005,-122.40139479999999,San Francisco,060750178012004
138,PAST SALE,February-15-2017,Condo/Co-op,78 Vicksburg St,San Francisco,CA,94114.0,1600000.0,2.0,2.0,Noe Valley,1491.0,,1908.0,18.0,1073.0,150.0,Sold,,,http://www.redfin.com/CA/San-Francisco/78-Vicksburg-St-94114/home/1542609,San Francisco MLS,453471,N,Y,37.753646999999994,-122.42904399999999,San Francisco,060750211001009
139,PAST SALE,February-22-2017,Single Family Residential,2635 Newhall St,San Francisco,CA,94124.0,780000.0,3.0,2.5,Silver Terrace,,,1997.0,11.0,,21.0,Sold,,,http://www.redfin.com/CA/San-Francisco/2635-Newhall-St-94124/home/752299,San Francisco MLS,451881,N,Y,37.7289122,-122.39802659999998,San Francisco,060750233001006
140,PAST SALE,February-16-2017,Single Family Residential,53 Edinburgh St,San Francisco,CA,94112.0,1011000.0,2.0,1.0,Excelsior,1125.0,2500.0,1912.0,17.0,899.0,,Sold,,,http://www.redfin.com/CA/San-Francisco/53-Edinburgh-St-94112/home/1336253,San Francisco MLS,453433,N,Y,37.7277756,-122.42681929999999,San Francisco,060750260021001
141,PAST SALE,February-21-2017,Condo/Co-op,281 Clara St #3,San Francisco,CA,94107.0,750000.0,1.0,1.5,South of Market,1114.0,,1996.0,12.0,673.0,584.0,Sold,,,http://www.redfin.com/CA/San-Francisco/281-Clara-St-94107/unit-3/home/12395882,San Francisco MLS,453708,N,Y,37.7779984,-122.4039706,San Francisco,060750178021005
142,PAST SALE,,Condo/Co-op,0 C A Rd #139,Musselshell,MT,59059.0,456000.0,,,,,,,,,,,,,http://www.redfin.com/MT/Musselshell/0-C-A-Rd-59059/unit-139/home/17232063,,,N,Y,37.721513,-122.47973940000001,San Francisco,060750332011005
143,PAST SALE,February-15-2017,Multi-Family (2-4 Unit),2288-2290 Sutter St,San Francisco,CA,94115.0,1949000.0,5.0,2.0,Lower Pacific Height,2960.0,2500.0,1900.0,18.0,658.0,,Sold,,,http://www.redfin.com/CA/San-Francisco/2290-Sutter-St-94115/home/1475462,San Francisco MLS,452818,N,Y,37.785571999999995,-122.4380633,San Francisco,060750153002000
144,PAST SALE,February-23-2017,Condo/Co-op,900 Bush #1008,San Francisco,CA,94109.0,835000.0,2.0,2.0,Downtown,826.0,,1982.0,10.0,1011.0,841.0,Sold,,,http://www.redfin.com/CA/San-Francisco/900-Bush-St-94109/unit-1008/home/880914,San Francisco MLS,453147,N,Y,37.7899818,-122.41251070000001,San Francisco,060750119012000
145,PAST SALE,February-23-2017,Condo/Co-op,2485 Union St #2,San Francisco,CA,94123.0,1300000.0,1.0,1.0,Cow Hollow,1300.0,,1925.0,10.0,1000.0,400.0,Sold,,,http://www.redfin.com/CA/San-Francisco/2485-Union-St-94123/unit-2/home/921397,San Francisco MLS,452966,N,Y,37.7963799,-122.4401438,San Francisco,060750128001017
146,PAST SALE,February-6-2017,Condo/Co-op,355 1st St Unit S2103,San Francisco,CA,94105.0,875000.0,1.0,1.0,South Beach,,,2004.0,27.0,,734.0,Sold,,,http://www.redfin.com/CA/San-Francisco/355-1st-St-94105/unit-S2103/home/39824246,San Francisco MLS,454063,N,Y,37.7868797,-122.3934879,San Francisco,060750615003013
147,PAST SALE,March-3-2017,Condo/Co-op,945 Capp St #4,San Francisco,CA,94110.0,1100000.0,2.0,1.0,Inner Mission,,,1925.0,2.0,,360.0,Sold,,,http://www.redfin.com/CA/San-Francisco/945-Capp-St-94110/unit-4/home/110052547,San Francisco MLS,454500,N,Y,37.751561200000005,-122.4170098,San Francisco,060750209001005
148,PAST SALE,March-3-2017,Multi-Family (2-4 Unit),1025 1025A Anza St,San Francisco,CA,94118.0,1510250.0,3.0,2.0,Inner Richmond,1940.0,2500.0,1907.0,2.0,778.0,,Sold,,,http://www.redfin.com/CA/San-Francisco/1025-Anza-St-94118/home/1375961,San Francisco MLS,454481,N,Y,37.7791011,-122.4592702,San Francisco,060750451001005
149,PAST SALE,March-1-2017,Condo/Co-op,2212 A 23rd St,San Francisco,CA,94107.0,870000.0,2.0,1.0,Potrero Hill,808.0,,,4.0,1077.0,150.0,Sold,,,http://www.redfin.com/CA/San-Francisco/2212A-23rd-St-94107/home/40138762,San Francisco MLS,454414,N,Y,37.754771000000005,-122.40205300000001,San Francisco,060750614003005
150,PAST SALE,February-9-2017,Single Family Residential,1490 45th Ave,San Francisco,CA,94122.0,971000.0,2.0,1.0,Outer Sunset,1250.0,1746.0,1937.0,24.0,777.0,,Sold,,,http://www.redfin.com/CA/San-Francisco/1490-45th-Ave-94122/home/1765646,San Francisco MLS,453312,N,Y,37.758832,-122.504499,San Francisco,060750352023001
151,PAST SALE,February-16-2017,Condo/Co-op,2200 Pacific Ave Unit 3A,San Francisco,CA,94115.0,1550000.0,2.0,2.0,Pacific Heights,1856.0,,1962.0,17.0,835.0,1187.0,Sold,,,http://www.redfin.com/CA/San-Francisco/2200-Pacific-Ave-94115/unit-3A/home/566779,San Francisco MLS,452793,N,Y,37.7939042,-122.4317493,San Francisco,060750132001004
152,PAST SALE,February-28-2017,Single Family Residential,2638 Irving St,San Francisco,CA,94122.0,1538000.0,3.0,1.5,Central Sunset,1750.0,3057.0,1917.0,5.0,879.0,,Sold,,,http://www.redfin.com/CA/San-Francisco/2638-Irving-St-94122/home/903411,San Francisco MLS,455078,N,Y,37.763409,-122.486304,San Francisco,060750326021002
153,PAST SALE,February-14-2017,Condo/Co-op,468 Tehama St #1,San Francisco,CA,94103.0,760000.0,1.0,1.5,South of Market,926.0,,1999.0,19.0,821.0,480.0,Sold,,,http://www.redfin.com/CA/San-Francisco/468-Tehama-St-94103/unit-1/home/12395924,San Francisco MLS,453393,N,Y,37.7799948,-122.40606729999999,San Francisco,060750178021000
154,PAST SALE,February-21-2017,Condo/Co-op,2194 Green St #2194,San Francisco,CA,94123.0,1363500.0,2.0,2.0,Pacific Heights,1350.0,,1906.0,12.0,1010.0,583.0,Sold,,,http://www.redfin.com/CA/San-Francisco/2194-Green-St-94115/unit-2194/home/102820953,San Francisco MLS,452800,N,Y,37.796430799999996,-122.4351922,San Francisco,060750130004003
155,PAST SALE,February-27-2017,Condo/Co-op,750 Great Hwy #2,San Francisco,CA,94121.0,541000.0,1.0,1.0,Outer Richmond,554.0,,1990.0,6.0,977.0,305.0,Sold,,,http://www.redfin.com/CA/San-Francisco/750-Great-Hwy-94121/unit-2/home/1789350,San Francisco MLS,454317,N,Y,37.7741921,-122.5107305,San Francisco,060750479012010
156,PAST SALE,February-28-2017,Condo/Co-op,245 5th St #311,San Francisco,CA,94103.0,1260000.0,2.0,1.0,Yerba Buena,1384.0,,1996.0,5.0,910.0,723.0,Sold,,,http://www.redfin.com/CA/San-Francisco/245-5th-St-94103/unit-311/home/886312,San Francisco MLS,453627,N,Y,37.78130720000001,-122.40382460000001,San Francisco,060750178011003
157,PAST SALE,March-3-2017,Townhouse,32 Perego Ter,San Francisco,CA,94131.0,882000.0,2.0,2.0,Twin Peaks,1414.0,,1962.0,2.0,624.0,163.0,Sold,,,http://www.redfin.com/CA/San-Francisco/32-Perego-Ter-94131/home/1710439,San Francisco MLS,454138,N,Y,37.750077000000005,-122.444732,San Francisco,060750204021012
158,PAST SALE,February-16-2017,Single Family Residential,324 Hanover St,San Francisco,CA,94112.0,1267000.0,4.0,4.0,Crocker Amazon,,2663.0,1927.0,17.0,,,Sold,,,http://www.redfin.com/CA/San-Francisco/324-Hanover-St-94112/home/1696540,San Francisco MLS,452822,N,Y,37.7092489,-122.44345530000001,San Francisco,060750263031006
159,PAST SALE,March-3-2017,Condo/Co-op,95 Red Rock Way Unit 210M,San Francisco,CA,94131.0,420000.0,0.0,1.0,Diamond Heights,474.0,,1972.0,2.0,886.0,443.0,Sold,,,http://www.redfin.com/CA/San-Francisco/95-Red-Rock-Way-94131/unit-210M/home/1934917,San Francisco MLS,453781,N,Y,37.746324,-122.44151699999999,San Francisco,060750216002010
160,PAST SALE,February-14-2017,Condo/Co-op,2555 Leavenworth St #303,San Francisco,CA,94133.0,1185000.0,2.0,2.0,Russian Hill,,,1961.0,19.0,,533.0,Sold,,,http://www.redfin.com/CA/San-Francisco/2555-Leavenworth-St-94133/unit-303/home/1845186,San Francisco MLS,450382,N,Y,37.804693,-122.418709,San Francisco,060750102001013
161,PAST SALE,March-3-2017,Condo/Co-op,3186 Clay St,San Francisco,CA,94115.0,2000000.0,2.0,2.0,Pacific Heights,2043.0,,,2.0,979.0,,Sold,,,http://www.redfin.com/CA/San-Francisco/3186-Clay-St-94115/home/1859478,San Francisco MLS,454080,N,Y,37.7894078,-122.44552340000001,San Francisco,060750134003004
162,PAST SALE,February-16-2017,Multi-Family (2-4 Unit),2039-2041 Judah St,San Francisco,CA,94122.0,1500000.0,4.0,2.0,Central Sunset,2500.0,2495.0,1948.0,17.0,600.0,,Sold,,,http://www.redfin.com/CA/San-Francisco/2041-Judah-St-94122/home/953244,San Francisco MLS,452846,N,Y,37.76125510000001,-122.4841666,San Francisco,060750326013006
163,PAST SALE,February-3-2017,Vacant Land,0 Princeton,California City,CA,,3500.0,,,CAC - California City,,11326.0,,30.0,,,Sold,,,http://www.redfin.com/CA/San-Francisco/0-Princeton-St-94134/home/52457880,CRMLS,CV16060006,N,Y,37.730107200000006,-122.41636559999999,San Francisco,060750257011008
164,PAST SALE,February-3-2017,Single Family Residential,1080 Silver Ave,San Francisco,CA,94134.0,565000.0,1.0,1.0,Portola,525.0,2204.0,1910.0,30.0,1076.0,,Sold,,,http://www.redfin.com/CA/San-Francisco/1080-Silver-Ave-94134/home/772303,San Francisco MLS,452835,N,Y,37.72925120000001,-122.4145361,San Francisco,060750257013006
165,PAST SALE,March-3-2017,Condo/Co-op,1463 Green St,San Francisco,CA,94109.0,1080000.0,3.0,1.5,Russian Hill,1028.0,,1907.0,2.0,1051.0,471.0,Sold,,,http://www.redfin.com/CA/San-Francisco/1463-Green-St-94109/unit-1475/home/565512,San Francisco MLS,453008,N,Y,37.797446,-122.42316100000001,San Francisco,060750109003006
166,PAST SALE,February-23-2017,Condo/Co-op,2595 Clay St #1,San Francisco,CA,94115.0,1240800.0,2.0,1.0,Pacific Heights,990.0,,1924.0,10.0,1253.0,464.0,Sold,,,http://www.redfin.com/CA/San-Francisco/2595-Clay-St-94115/unit-1/home/1865862,San Francisco MLS,454326,N,Y,37.790409000000004,-122.43549979999999,San Francisco,060750135002003
167,PAST SALE,February-24-2017,Condo/Co-op,3249 17th St #3,San Francisco,CA,94110.0,1460000.0,2.0,2.0,Inner Mission,1205.0,,,9.0,1212.0,,Sold,,,http://www.redfin.com/CA/San-Francisco/3249-17th-St-94110/unit-3/home/113204169,San Francisco MLS,455107,N,Y,37.763350200000005,-122.4182818,San Francisco,060750208001000
168,PAST SALE,February-8-2017,Single Family Residential,100 Florentine St,San Francisco,CA,94112.0,938000.0,3.0,1.0,Crocker Amazon,1450.0,6098.0,1927.0,25.0,647.0,,Sold,,,http://www.redfin.com/CA/San-Francisco/100-Florentine-St-94112/home/1945197,San Francisco MLS,453346,N,Y,37.7117799,-122.4434244,San Francisco,060750263013010
169,PAST SALE,February-28-2017,Condo/Co-op,724 Tennessee St,San Francisco,CA,94107.0,1225000.0,3.0,1.0,Central Waterfront,1152.0,,1900.0,5.0,1063.0,125.0,Sold,,,http://www.redfin.com/CA/San-Francisco/724-Tennessee-St-94107/home/52059313,San Francisco MLS,453468,N,Y,37.7625798,-122.3899567,San Francisco,060750226001017
170,PAST SALE,February-17-2017,Condo/Co-op,616 20th St #510,San Francisco,CA,94107.0,900000.0,2.0,1.0,Central Waterfront,770.0,,2013.0,16.0,1169.0,473.0,Sold,,,http://www.redfin.com/CA/San-Francisco/616-20th-St-94107/unit-510/home/52203632,San Francisco MLS,454236,N,Y,37.760768,-122.387975,San Francisco,060750226001021
171,PAST SALE,March-3-2017,Condo/Co-op,1 Bluxome St #416,San Francisco,CA,94107.0,1250000.0,2.0,1.5,South of Market,1361.0,,2003.0,2.0,918.0,432.0,Sold,,,http://www.redfin.com/CA/San-Francisco/1-Bluxome-St-94107/unit-416/home/12401074,San Francisco MLS,454529,N,Y,37.7774232,-122.39588359999999,San Francisco,060750180001033
172,PAST SALE,February-15-2017,Condo/Co-op,855 Folsom St #940,San Francisco,CA,94107.0,1045000.0,1.0,1.5,Yerba Buena,,,2001.0,18.0,,533.0,Sold,,,http://www.redfin.com/CA/San-Francisco/855-Folsom-St-94107/unit-940/home/12397724,San Francisco MLS,454238,N,Y,37.780773700000005,-122.4021633,San Francisco,060750178012004
173,PAST SALE,February-24-2017,Condo/Co-op,631 Folsom St Unit 16F,San Francisco,CA,94107.0,1325000.0,2.0,2.0,Yerba Buena,1190.0,,2009.0,9.0,1113.0,818.0,Sold,,,http://www.redfin.com/CA/San-Francisco/631-Folsom-St-94107/unit-16F/home/21966544,San Francisco MLS,454054,N,Y,37.784817600000004,-122.3969578,San Francisco,060750615002017
174,PAST SALE,February-6-2017,Condo/Co-op,200 Townsend St #21,San Francisco,CA,94107.0,905000.0,1.0,2.0,South Beach,877.0,,2003.0,27.0,1032.0,559.0,Sold,,,http://www.redfin.com/CA/San-Francisco/200-Townsend-St-94107/unit-21/home/2072674,San Francisco MLS,453653,N,Y,37.7789009,-122.393248,San Francisco,060750180001011
175,PAST SALE,February-21-2017,Condo/Co-op,660 Natoma St #2,San Francisco,CA,94103.0,690000.0,1.0,1.0,South of Market,541.0,,2008.0,12.0,1275.0,250.0,Sold,,,http://www.redfin.com/CA/San-Francisco/660-Natoma-St-94103/unit-2/home/1605352,San Francisco MLS,453681,N,Y,37.7774455,-122.4114763,San Francisco,060750176013003
176,PAST SALE,February-8-2017,Condo/Co-op,834 Arkansas St #3,San Francisco,CA,94107.0,880000.0,2.0,1.0,Potrero Hill,870.0,,1962.0,25.0,1011.0,200.0,Sold,,,http://www.redfin.com/CA/San-Francisco/834-Arkansas-St-94107/unit-3/home/2008833,San Francisco MLS,454375,N,Y,37.75557,-122.39811100000001,San Francisco,060750614003008
177,PAST SALE,February-13-2017,Condo/Co-op,1821 Grant Ave #201,San Francisco,CA,94133.0,1275000.0,2.0,2.0,Telegraph Hill,1350.0,,1975.0,20.0,944.0,400.0,Sold,,,http://www.redfin.com/CA/San-Francisco/1821-Grant-Ave-94133/unit-201/home/1864994,San Francisco MLS,453767,N,Y,37.803754999999995,-122.40851299999999,San Francisco,060750104002000
178,PAST SALE,,Vacant Land,53 States,San Francisco,CA,94114.0,,,1.0,,600.0,2639.0,1900.0,,,,Sold,,,http://www.redfin.com/CA/San-Francisco/53-States-St-94114/home/1992954,San Francisco MLS,,N,Y,37.763176,-122.436456,San Francisco,060750170002009
179,PAST SALE,February-10-2017,Single Family Residential,1929 48th Ave,San Francisco,CA,94116.0,1076000.0,2.0,1.0,Outer Parkside,1130.0,1746.0,1946.0,23.0,952.0,,Sold,,,http://www.redfin.com/CA/San-Francisco/1929-48th-Ave-94116/home/2036542,San Francisco MLS,453408,N,Y,37.750414500000005,-122.5075753,San Francisco,060750352012005
180,PAST SALE,February-17-2017,Single Family Residential,350 Jersey St,San Francisco,CA,94114.0,2005000.0,2.0,1.0,Noe Valley,1402.0,2964.0,1941.0,16.0,1430.0,,Sold,,,http://www.redfin.com/CA/San-Francisco/350-Jersey-St-94114/home/801355,San Francisco MLS,454308,N,Y,37.750803999999995,-122.43294499999999,San Francisco,060750214003001
181,PAST SALE,February-24-2017,Condo/Co-op,17 Ashbury St #6,San Francisco,CA,94117.0,950000.0,2.0,1.0,North Panhandle,,,1925.0,9.0,,450.0,Sold,,,http://www.redfin.com/CA/San-Francisco/17-Ashbury-St-94117/unit-6/home/110052376,San Francisco MLS,453911,N,Y,37.775384100000004,-122.44818159999998,San Francisco,060750165003000
182,PAST SALE,February-3-2017,Condo/Co-op,75 Roosevelt Way #2,San Francisco,CA,94114.0,955000.0,2.0,2.0,Corona Heights,864.0,,1968.0,30.0,1105.0,353.0,Sold,,,http://www.redfin.com/CA/San-Francisco/75-Roosevelt-Way-94114/unit-2/home/110052273,San Francisco MLS,453200,N,Y,37.7664169,-122.437749,San Francisco,060750170001005
183,PAST SALE,February-6-2017,Condo/Co-op,3294 Clay St #5,San Francisco,CA,94115.0,1495000.0,2.0,2.0,Pacific Heights,1487.0,,1911.0,27.0,1005.0,463.0,Sold,,,http://www.redfin.com/CA/San-Francisco/3294-Clay-St-94115/unit-5/home/1070326,San Francisco MLS,452562,N,Y,37.7892449,-122.44687350000001,San Francisco,060750133002000
184,PAST SALE,February-7-2017,Multi-Family (5+ Unit),1616 Taylor St,San Francisco,CA,94133.0,6300000.0,12.0,,Russian Hill,8865.0,5174.0,1923.0,26.0,711.0,,Sold,,,http://www.redfin.com/CA/San-Francisco/1616-Taylor-St-94133/home/1365570,San Francisco MLS,453240,N,Y,37.797384,-122.413269,San Francisco,060750108001005
185,PAST SALE,February-21-2017,Single Family Residential,375 Prentiss St,San Francisco,CA,94110.0,1150000.0,2.0,1.0,Bernal Heights,975.0,1751.0,1951.0,12.0,1179.0,,Sold,,,http://www.redfin.com/CA/San-Francisco/375-Prentiss-St-94110/home/936998,San Francisco MLS,452305,N,Y,37.738609999999994,-122.4119035,San Francisco,060750254023002
186,PAST SALE,February-13-2017,Single Family Residential,3956 20th St,San Francisco,CA,94114.0,2775000.0,3.0,2.5,Eureka Valley/Dolore,,2848.0,1916.0,20.0,,,Sold,,,http://www.redfin.com/CA/San-Francisco/3956-20th-St-94114/home/1861664,San Francisco MLS,452153,N,Y,37.7581881,-122.42922490000001,San Francisco,060750206001013
187,PAST SALE,February-22-2017,Single Family Residential,2178 18th Ave,San Francisco,CA,94116.0,1950000.0,5.0,5.0,Inner Parkside,2700.0,3606.0,1928.0,11.0,722.0,,Sold,,,http://www.redfin.com/CA/San-Francisco/2178-18th-Ave-94116/home/1271060,San Francisco MLS,453810,N,Y,37.747254999999996,-122.474581,San Francisco,060750304003008
188,PAST SALE,February-21-2017,Multi-Family (2-4 Unit),3880-3882 19th St,San Francisco,CA,94114.0,2850000.0,4.0,2.0,Eureka Valley/Dolore,3072.0,2850.0,1925.0,12.0,928.0,,Sold,,,http://www.redfin.com/CA/San-Francisco/3882-19th-St-94114/home/1726430,San Francisco MLS,453684,N,Y,37.759684,-122.42996480000001,San Francisco,060750206001007
189,PAST SALE,February-7-2017,Multi-Family (2-4 Unit),34-36 Annapolis Ter,San Francisco,CA,94118.0,1350000.0,3.0,2.0,Lone Mountain,2358.0,2495.0,1939.0,26.0,573.0,,Sold,,,http://www.redfin.com/CA/San-Francisco/36-Annapolis-Ter-94118/home/595335,San Francisco MLS,452839,N,Y,37.777956200000006,-122.44777040000001,San Francisco,060750157004000
190,PAST SALE,February-6-2017,Condo/Co-op,3345 21st St,San Francisco,CA,94110.0,2030000.0,3.0,2.0,Eureka Valley/Dolore,2050.0,,1885.0,27.0,990.0,176.0,Sold,,,http://www.redfin.com/CA/San-Francisco/3345-21st-St-94110/home/11743092,San Francisco MLS,453338,N,Y,37.7565979,-122.422091,San Francisco,060750207003000
191,PAST SALE,February-23-2017,Single Family Residential,1279 Shafter Ave,San Francisco,CA,94124.0,900000.0,4.0,2.0,Bayview,1904.0,2500.0,1988.0,10.0,473.0,,Sold,,,http://www.redfin.com/CA/San-Francisco/1279-Shafter-Ave-94124/home/1094444,San Francisco MLS,453156,N,Y,37.727436,-122.38478090000001,San Francisco,060750232002016
192,PAST SALE,February-15-2017,Condo/Co-op,955 Green St #3,San Francisco,CA,94133.0,6600000.0,3.0,4.5,Russian Hill,3215.0,,2002.0,18.0,2053.0,2572.0,Sold,,,http://www.redfin.com/CA/San-Francisco/955-Green-St-94133/unit-3/home/1745281,San Francisco MLS,454918,N,Y,37.798499,-122.41478300000001,San Francisco,060750108001001
193,PAST SALE,March-1-2017,Condo/Co-op,200 Brannan St #205,San Francisco,CA,94107.0,1465000.0,2.0,2.0,South Beach,1500.0,,2004.0,4.0,977.0,714.0,Sold,,,http://www.redfin.com/CA/San-Francisco/200-Brannan-St-94107/unit-205/home/1077548,San Francisco MLS,453425,N,Y,37.7835714,-122.3907007,San Francisco,060750615006006
194,PAST SALE,February-17-2017,Condo/Co-op,150 Page St #16,San Francisco,CA,94102.0,605378.0,1.0,1.0,Hayes Valley,483.0,,1929.0,16.0,1253.0,410.0,Sold,,,http://www.redfin.com/CA/San-Francisco/150-Page-St-94102/unit-16/home/1136153,San Francisco MLS,453314,N,Y,37.774122600000005,-122.42343600000001,San Francisco,060750168021005
195,PAST SALE,February-22-2017,Single Family Residential,3525 Ortega St,San Francisco,CA,94122.0,985000.0,3.0,1.0,Outer Sunset,1214.0,2495.0,1948.0,11.0,811.0,,Sold,,,http://www.redfin.com/CA/San-Francisco/3525-Ortega-St-94122/home/1469351,San Francisco MLS,453852,N,Y,37.751019,-122.50146299999999,San Francisco,060750351007007
196,PAST SALE,February-17-2017,Condo/Co-op,126 Dolphin Ct,San Francisco,CA,94124.0,490000.0,2.0,1.0,Hunters Point,996.0,,1981.0,16.0,492.0,340.0,Sold,,,http://www.redfin.com/CA/San-Francisco/126-Dolphin-Ct-94124/home/1885249,San Francisco MLS,451622,N,Y,37.7282089,-122.371007,San Francisco,060759806001012
197,PAST SALE,February-24-2017,Single Family Residential,391 Day St,San Francisco,CA,94131.0,2525000.0,3.0,2.5,Noe Valley,2028.0,2402.0,1904.0,9.0,1245.0,,Sold,,,http://www.redfin.com/CA/San-Francisco/391-Day-St-94131/home/1133788,San Francisco MLS,454415,N,Y,37.74242,-122.43087309999999,San Francisco,060750215003007
198,PAST SALE,February-28-2017,Single Family Residential,374 Prague St,San Francisco,CA,94112.0,1000000.0,3.0,2.0,Excelsior,1089.0,2495.0,1944.0,5.0,918.0,,Sold,,,http://www.redfin.com/CA/San-Francisco/374-Prague-St-94112/home/788172,San Francisco MLS,454044,N,Y,37.716341,-122.429503,San Francisco,060750260032009
199,PAST SALE,February-10-2017,Condo/Co-op,1650 Broadway St #506,San Francisco,CA,94109.0,1170000.0,1.0,2.0,Pacific Heights,899.0,,2016.0,23.0,1301.0,882.0,Sold,,,http://www.redfin.com/CA/San-Francisco/1650-Broadway-94109/unit-506/home/109655852,San Francisco MLS,452572,N,Y,37.795913,-122.424471,San Francisco,060750131011000
200,PAST SALE,March-2-2017,Condo/Co-op,1688 Pine St Unit W907,San Francisco,CA,94109.0,1617000.0,2.0,2.0,Van Ness/Civic Center,1149.0,,2016.0,3.0,1407.0,900.0,Sold,,,http://www.redfin.com/CA/San-Francisco/1688-Pine-St-94109/unit-W907/home/109568956,San Francisco MLS,452512,N,Y,37.7892476,-122.42355359999999,San Francisco,060750151001000
201,PAST SALE,February-17-2017,Condo/Co-op,74 New Montgomery St #608,San Francisco,CA,94105.0,1175000.0,1.0,1.0,Yerba Buena,952.0,,1914.0,16.0,1234.0,875.0,Sold,,,http://www.redfin.com/CA/San-Francisco/74-New-Montgomery-St-94105/unit-608/home/17305124,San Francisco MLS,452476,N,Y,37.78768529999999,-122.4010321,San Francisco,060750615001037
202,PAST SALE,February-22-2017,Condo/Co-op,550 South Van Ness Ave #405,San Francisco,CA,94110.0,228833.0,1.0,1.0,Inner Mission,540.0,,1992.0,11.0,424.0,346.0,Sold,,,http://www.redfin.com/CA/San-Francisco/550-S-Van-Ness-Ave-94110/unit-4/home/1112891,San Francisco MLS,450544,N,Y,37.7643635,-122.41782959999999,San Francisco,060750201004000
203,PAST SALE,February-21-2017,Single Family Residential,515 Delta St,San Francisco,CA,94134.0,621029.0,2.0,1.0,Visitacion Valley,700.0,1500.0,1928.0,12.0,887.0,,Sold,,,http://www.redfin.com/CA/San-Francisco/515-Delta-St-94134/home/1815403,San Francisco MLS,452217,N,Y,37.713459,-122.409152,San Francisco,060750264012006
204,PAST SALE,February-22-2017,Single Family Residential,1894 36th Ave,San Francisco,CA,94122.0,1550000.0,3.0,2.5,Central Sunset,1974.0,2374.0,1946.0,11.0,785.0,,Sold,,,http://www.redfin.com/CA/San-Francisco/1894-36th-Ave-94122/home/1461994,San Francisco MLS,453776,N,Y,37.751732700000005,-122.49433359999999,San Francisco,060750329022007
205,PAST SALE,February-24-2017,Condo/Co-op,2655 Bush St #421,San Francisco,CA,94115.0,1365000.0,2.0,2.0,Lower Pacific Height,1080.0,,2017.0,9.0,1264.0,821.0,Sold,,,http://www.redfin.com/CA/San-Francisco/2655-Bush-St-94115/unit-421/home/112392740,San Francisco MLS,453961,N,Y,37.785833399999994,-122.44066770000002,San Francisco,060750153002003
206,PAST SALE,February-22-2017,Single Family Residential,2143 25th Ave,San Francisco,CA,94116.0,1425000.0,3.0,2.0,Parkside,1592.0,3000.0,1937.0,11.0,895.0,,Sold,,,http://www.redfin.com/CA/San-Francisco/2143-25th-Ave-94116/home/1652615,San Francisco MLS,453493,N,Y,37.7475309,-122.48267990000001,San Francisco,060750328013002
207,PAST SALE,February-10-2017,Condo/Co-op,601 Van Ness Ave #630,San Francisco,CA,94102.0,610000.0,1.0,1.0,Van Ness/Civic Center,672.0,,1982.0,23.0,908.0,777.0,Sold,,,http://www.redfin.com/CA/San-Francisco/601-Van-Ness-Ave-94102/unit-630/home/1818114,San Francisco MLS,451635,N,Y,37.7815203,-122.42068090000001,San Francisco,060750160001011
208,PAST SALE,February-23-2017,Single Family Residential,766 38th Ave,San Francisco,CA,94121.0,900000.0,3.0,1.0,Outer Richmond,1100.0,2996.0,1923.0,10.0,818.0,,Sold,,,http://www.redfin.com/CA/San-Francisco/766-38th-Ave-94121/home/2026921,San Francisco MLS,450133,N,Y,37.774431799999995,-122.4980512,San Francisco,060750478022002
209,PAST SALE,February-21-2017,Multi-Family (2-4 Unit),252-256 Hartford St,San Francisco,CA,94114.0,3215000.0,9.0,4.0,Eureka Valley/Dolore,4769.0,3436.0,1923.0,12.0,674.0,,Sold,,,http://www.redfin.com/CA/San-Francisco/256-Hartford-St-94114/home/1834801,San Francisco MLS,451902,N,Y,37.7584245,-122.4337534,San Francisco,060750206003002
210,PAST SALE,February-6-2017,Single Family Residential,340 Cumberland St,San Francisco,CA,94114.0,2975000.0,2.0,2.0,Eureka Valley/Dolore,1975.0,2848.0,1936.0,27.0,1506.0,,Sold,,,http://www.redfin.com/CA/San-Francisco/340-Cumberland-St-94114/home/711972,San Francisco MLS,453575,N,Y,37.758942,-122.431347,San Francisco,060750206003000
211,PAST SALE,February-17-2017,Single Family Residential,185 Maynard St,San Francisco,CA,94112.0,1175000.0,3.0,2.0,Excelsior,1507.0,2750.0,1913.0,16.0,780.0,,Sold,,,http://www.redfin.com/CA/San-Francisco/185-Maynard-St-94112/home/1122553,San Francisco MLS,453311,N,Y,37.729603000000004,-122.426344,San Francisco,060750256004002
212,PAST SALE,February-24-2017,Condo/Co-op,330 N Mission Bay Blvd #405,San Francisco,CA,94158.0,1150000.0,2.0,2.0,Mission Bay,1046.0,,2008.0,9.0,1099.0,831.0,Sold,,,http://www.redfin.com/CA/San-Francisco/330-Mission-Bay-Blvd-N-94158/unit-405/home/23454725,San Francisco MLS,454329,N,Y,37.7713635,-122.3873252,San Francisco,060750607001019
213,PAST SALE,February-17-2017,Condo/Co-op,1700 Gough St #7,San Francisco,CA,94109.0,570000.0,0.0,1.0,Lower Pacific Height,510.0,,1980.0,16.0,1118.0,345.0,Sold,,,http://www.redfin.com/CA/San-Francisco/1700-Gough-St-94109/unit-7/home/571440,San Francisco MLS,454053,N,Y,37.78932460000001,-122.42525900000001,San Francisco,060750151001001
214,PAST SALE,February-24-2017,Single Family Residential,1117 Hampshire,San Francisco,CA,94110.0,1300000.0,2.0,1.0,Inner Mission,,,,9.0,,,Sold,,,http://www.redfin.com/CA/San-Francisco/1117-Hampshire-St-94110/home/1961041,San Francisco MLS,454066,N,Y,37.753867,-122.407105,San Francisco,060750229031001
215,PAST SALE,February-23-2017,Multi-Family (2-4 Unit),2742-2744 Baker St,San Francisco,CA,94123.0,2050000.0,5.0,2.0,Cow Hollow,3260.0,2495.0,1912.0,10.0,629.0,,Sold,,,http://www.redfin.com/CA/San-Francisco/2742-Baker-St-94123/home/1942567,San Francisco MLS,455132,N,Y,37.7964205,-122.44552649999999,San Francisco,060750128002002
216,PAST SALE,February-27-2017,Single Family Residential,4127 20th St,San Francisco,CA,94114.0,2825000.0,3.0,2.5,Eureka Valley/Dolore,,2850.0,1898.0,6.0,,,Sold,,,http://www.redfin.com/CA/San-Francisco/4127-20th-St-94114/home/712108,San Francisco MLS,453719,N,Y,37.757534,-122.433159,San Francisco,060750206003003
217,PAST SALE,February-27-2017,Multi-Family (2-4 Unit),450 - 452 Plymouth Ave,SAN FRANCISCO,CA,94112.0,1260000.0,6.0,,SAN FRANCISCO,2400.0,2099.0,1961.0,6.0,525.0,,Sold,,,http://www.redfin.com/CA/San-Francisco/450-Plymouth-Ave-94112/home/826935,MLSListings,ML81614694,N,Y,37.714808000000005,-122.45583500000001,San Francisco,060750314002002
218,PAST SALE,February-24-2017,Condo/Co-op,1650 Broadway St #202,San Francisco,CA,94109.0,1888800.0,3.0,2.5,Pacific Heights,1582.0,,2016.0,9.0,1194.0,1044.0,Sold,,,http://www.redfin.com/CA/San-Francisco/1650-Broadway-94109/unit-202/home/110593137,San Francisco MLS,452881,N,Y,37.795913,-122.424471,San Francisco,060750131011000
219,PAST SALE,February-27-2017,Condo/Co-op,2117 Bush St Unit A,San Francisco,CA,94115.0,965000.0,1.0,1.0,Lower Pacific Height,911.0,,1900.0,6.0,1059.0,221.0,Sold,,,http://www.redfin.com/CA/San-Francisco/2117-Bush-St-94115/unit-A/home/22042936,San Francisco MLS,453796,N,Y,37.786854999999996,-122.43249899999999,San Francisco,060750152003004
220,PAST SALE,,Condo/Co-op,0 C A Rd #142,Musselshell,MT,59059.0,447500.0,,,,,,,,,,,,,http://www.redfin.com/MT/Musselshell/0-C-A-Rd-59059/unit-142/home/17231713,,,N,Y,37.721513,-122.47973940000001,San Francisco,060750332011005
221,PAST SALE,February-24-2017,Condo/Co-op,2839 Pierce St #1,San Francisco,CA,94123.0,854000.0,1.0,1.0,Cow Hollow,720.0,,1947.0,9.0,1186.0,232.0,Sold,,,http://www.redfin.com/CA/San-Francisco/2839-Pierce-St-94123/unit-1/home/1366485,San Francisco MLS,454470,N,Y,37.7960134,-122.4392514,San Francisco,060750128001017
222,PAST SALE,February-28-2017,Condo/Co-op,25 Sycamore St,San Francisco,CA,94110.0,1200000.0,2.0,1.0,Inner Mission,1121.0,,1916.0,5.0,1070.0,300.0,Sold,,,http://www.redfin.com/CA/San-Francisco/25-Sycamore-St-94110/home/26773568,San Francisco MLS,454026,N,Y,37.7625486,-122.4200513,San Francisco,060750208001006
223,PAST SALE,February-28-2017,Condo/Co-op,553 Page St,San Francisco,CA,94117.0,1620000.0,3.0,2.0,Hayes Valley,1700.0,,1900.0,5.0,953.0,250.0,Sold,,,http://www.redfin.com/CA/San-Francisco/553-Page-St-94117/home/12277414,San Francisco MLS,453755,N,Y,37.7729308,-122.4297726,San Francisco,060750168011000
224,PAST SALE,February-28-2017,Single Family Residential,108 Bosworth St,San Francisco,CA,94112.0,1290000.0,6.0,3.0,Bernal Heights,2468.0,1873.0,1909.0,5.0,523.0,,Sold,,,http://www.redfin.com/CA/San-Francisco/108-Bosworth-St-94112/home/1415297,San Francisco MLS,452456,N,Y,37.7337086,-122.42815449999999,San Francisco,060750255001003
225,PAST SALE,February-28-2017,Condo/Co-op,3236 Divisadero St,San Francisco,CA,94123.0,2291000.0,3.0,2.5,Marina,1900.0,,1924.0,5.0,1206.0,294.0,Sold,,,http://www.redfin.com/CA/San-Francisco/3236-Divisadero-St-94123/home/2015741,San Francisco MLS,453927,N,Y,37.7995885,-122.4425277,San Francisco,060750128004000
226,PAST SALE,February-22-2017,Single Family Residential,30 Clarendon Ave,San Francisco,CA,94114.0,2500000.0,3.0,2.0,Clarendon Heights,1917.0,2217.0,1959.0,11.0,1304.0,,Sold,,,http://www.redfin.com/CA/San-Francisco/30-Clarendon-Ave-94114/home/1138844,San Francisco MLS,453448,N,Y,37.7590818,-122.44952350000001,San Francisco,060750301023009
227,PAST SALE,February-28-2017,Single Family Residential,1590 22nd Ave,San Francisco,CA,94122.0,1325000.0,2.0,1.0,Central Sunset,1600.0,2247.0,1930.0,5.0,828.0,,Sold,,,http://www.redfin.com/CA/San-Francisco/1590-22nd-Ave-94122/home/2004097,San Francisco MLS,453367,N,Y,37.758051,-122.479684,San Francisco,060750326022003
228,PAST SALE,February-24-2017,Condo/Co-op,2900 22nd St #11,San Francisco,CA,94110.0,845000.0,1.0,2.0,Inner Mission,882.0,,2003.0,9.0,958.0,467.0,Sold,,,http://www.redfin.com/CA/San-Francisco/2900-22nd-St-94110/unit-11/home/868812,San Francisco MLS,453486,N,Y,37.7560006,-122.41256000000001,San Francisco,060750228031000
229,PAST SALE,February-28-2017,Condo/Co-op,15 Red Rock Way Unit 211N,San Francisco,CA,94131.0,700000.0,1.0,1.0,Diamond Heights,830.0,,1972.0,5.0,843.0,525.0,Sold,,,http://www.redfin.com/CA/San-Francisco/15-Red-Rock-Way-94131/unit-211N/home/841388,San Francisco MLS,453975,N,Y,37.746488,-122.440951,San Francisco,060750216002010
230,PAST SALE,February-28-2017,Multi-Family (2-4 Unit),327-329 Frederick St,San Francisco,CA,94117.0,2700000.0,10.0,,Parnassus/Ashbury Heights,4125.0,2875.0,1904.0,5.0,655.0,,Sold,,,http://www.redfin.com/CA/San-Francisco/329-Frederick-St-94117/home/970647,San Francisco MLS,453298,N,Y,37.7667253,-122.44864240000001,San Francisco,060750171021000
231,PAST SALE,March-1-2017,Multi-Family (5+ Unit),104-114 Guerrero St,San Francisco,CA,94103.0,4100000.0,18.0,,Mission Dolores,9504.0,5845.0,1906.0,4.0,431.0,,Sold,,,http://www.redfin.com/CA/San-Francisco/114-Guerrero-St-94103/home/112855316,San Francisco MLS,453342,N,Y,37.769366299999994,-122.4247504,San Francisco,060750202001011
232,PAST SALE,February-28-2017,Single Family Residential,360 Valdez Ave,San Francisco,CA,94127.0,1900000.0,4.0,3.0,Westwood Highlands,,3746.0,1926.0,5.0,,4.0,Sold,,,http://www.redfin.com/CA/San-Francisco/360-Valdez-Ave-94127/home/1509999,San Francisco MLS,453999,N,Y,37.733388,-122.45655500000001,San Francisco,060750310001001
233,PAST SALE,March-1-2017,Multi-Family (5+ Unit),3001-3003 25th St,San Francisco,CA,94110.0,1745000.0,4.0,,Inner Mission,2790.0,2996.0,1900.0,4.0,625.0,,Sold,,,http://www.redfin.com/CA/San-Francisco/3003-25th-St-94110/home/736857,San Francisco MLS,451416,N,Y,37.7510456,-122.4101015,San Francisco,060750229022001
234,PAST SALE,March-1-2017,Single Family Residential,2471 35th Ave,San Francisco,CA,94116.0,1470000.0,4.0,2.5,Parkside,1885.0,3000.0,1923.0,4.0,780.0,,Sold,,,http://www.redfin.com/CA/San-Francisco/2471-35th-Ave-94116/home/1081861,San Francisco MLS,453833,N,Y,37.740972,-122.493073,San Francisco,060750330005007
235,PAST SALE,February-9-2017,Single Family Residential,26 Eastwood Dr,San Francisco,CA,94112.0,2000026.0,4.0,4.0,Westwood Park,,3550.0,1923.0,24.0,,7.0,Sold,,,http://www.redfin.com/CA/San-Francisco/26-Eastwood-Dr-94112/home/1446737,San Francisco MLS,454468,N,Y,37.725747999999996,-122.457421,San Francisco,060750310002025
236,PAST SALE,February-8-2017,Condo/Co-op,1036 Potrero Ave #6,San Francisco,CA,94110.0,870000.0,2.0,2.0,Inner Mission,936.0,,1987.0,25.0,929.0,250.0,Sold,,,http://www.redfin.com/CA/San-Francisco/1036-Potrero-Ave-94110/unit-6/home/1221702,San Francisco MLS,452081,N,Y,37.755457,-122.40690479999999,San Francisco,060750228022013
237,PAST SALE,February-13-2017,Condo/Co-op,441 Linden St,San Francisco,CA,94102.0,2150000.0,3.0,3.0,Hayes Valley,1731.0,,2016.0,20.0,1242.0,535.0,Sold,,,http://www.redfin.com/CA/San-Francisco/441-Linden-St-94102/home/109495649,San Francisco MLS,452294,N,Y,37.7760429,-122.42524089999999,San Francisco,060750162003005
238,PAST SALE,February-14-2017,Condo/Co-op,401 Harrison St Unit 7A,San Francisco,CA,94105.0,1211528.0,2.0,2.0,South Beach,1404.0,,,19.0,863.0,1289.0,Sold,,,http://www.redfin.com/CA/San-Francisco/401-Harrison-St-94105/unit-7A/home/110032493,San Francisco MLS,452666,N,Y,37.7863987,-122.3920534,San Francisco,060750615004014
239,PAST SALE,March-3-2017,Condo/Co-op,1221 Harrison St #17,San Francisco,CA,94103.0,850000.0,1.0,2.0,South of Market,1209.0,,2004.0,2.0,703.0,529.0,Sold,,,http://www.redfin.com/CA/San-Francisco/1221-Harrison-St-94103/unit-17/home/22892744,San Francisco MLS,450460,N,Y,37.7731279,-122.4087672,San Francisco,060750180002032
240,PAST SALE,February-3-2017,Townhouse,550 Davis St #13,San Francisco,CA,94111.0,2950000.0,3.0,3.0,Financial District,2251.0,,1981.0,30.0,1311.0,1340.0,Sold,,,http://www.redfin.com/CA/San-Francisco/550-Davis-St-94111/unit-13/home/2020710,San Francisco MLS,452642,N,Y,37.7974207,-122.39816440000001,San Francisco,060750105002007
241,PAST SALE,February-6-2017,Condo/Co-op,1688 Pine St Unit EPH04,San Francisco,CA,94109.0,969000.0,1.0,1.0,Van Ness/Civic Center,616.0,,2016.0,27.0,1573.0,635.0,Sold,,,http://www.redfin.com/CA/San-Francisco/1688-Pine-St-94109/unit-EPH04/home/108189044,San Francisco MLS,453137,N,Y,37.789258000000004,-122.4235605,San Francisco,060750151001000
242,PAST SALE,February-22-2017,Condo/Co-op,338 Potrero Ave #305,San Francisco,CA,94103.0,762000.0,1.0,1.0,Inner Mission,,,2016.0,11.0,,572.0,Sold,,,http://www.redfin.com/CA/San-Francisco/338-Potrero-Ave-94103/unit-305/home/109470095,San Francisco MLS,452114,N,Y,37.765235,-122.40754009999998,San Francisco,060750177001050
243,PAST SALE,February-8-2017,Single Family Residential,240 Holyoke St,San Francisco,CA,94134.0,887750.0,3.0,2.0,Portola,1000.0,2996.0,1928.0,25.0,888.0,,Sold,,,http://www.redfin.com/CA/San-Francisco/240-Holyoke-St-94134/home/1720529,San Francisco MLS,452948,N,Y,37.728133,-122.4095176,San Francisco,060750257023002
244,PAST SALE,February-13-2017,Condo/Co-op,1870 Jackson St #203,San Francisco,CA,94109.0,1825000.0,3.0,3.0,Pacific Heights,1800.0,,1931.0,20.0,1014.0,1033.0,Sold,,,http://www.redfin.com/CA/San-Francisco/1870-Jackson-St-94109/unit-203/home/1357832,San Francisco MLS,451904,N,Y,37.7938453,-122.4258578,San Francisco,060750131011005
245,PAST SALE,February-13-2017,Single Family Residential,132 Douglass St,San Francisco,CA,94114.0,1954000.0,3.0,2.5,Corona Heights,2087.0,1700.0,1904.0,20.0,936.0,,Sold,,,http://www.redfin.com/CA/San-Francisco/132-Douglass-St-94114/home/2024357,San Francisco MLS,454630,N,Y,37.7616006,-122.4395992,San Francisco,060750204013000
246,PAST SALE,February-3-2017,Single Family Residential,60 Mercury St,San Francisco,CA,94124.0,832000.0,2.0,1.0,Silver Terrace,1275.0,2121.0,1941.0,30.0,653.0,,Sold,,,http://www.redfin.com/CA/San-Francisco/60-Mercury-St-94124/home/751365,San Francisco MLS,452945,N,Y,37.731713,-122.4017121,San Francisco,060750230013001
247,PAST SALE,February-10-2017,Single Family Residential,1969 San Jose Ave,San Francisco,CA,94112.0,760000.0,3.0,2.0,Mission Terrace,1433.0,2522.0,1919.0,23.0,530.0,,Sold,,,http://www.redfin.com/CA/San-Francisco/1969-San-Jose-Ave-94112/home/1003684,San Francisco MLS,446605,N,Y,37.725425,-122.442295,San Francisco,060750255005008
248,PAST SALE,February-28-2017,Townhouse,263 Summit Way,San Francisco,CA,94132.0,1338941.0,3.0,2.5,Stonestown,1850.0,,2016.0,5.0,724.0,202.0,Sold,,,http://www.redfin.com/CA/San-Francisco/263-Summit-Way-94132/home/103971608,San Francisco MLS,442593,N,Y,37.714897,-122.47723130000001,San Francisco,060750332031010
249,PAST SALE,February-10-2017,Multi-Family (2-4 Unit),1641-45 Grove St,San Francisco,CA,94117.0,1640000.0,8.0,3.0,North Panhandle,3407.0,3436.0,1922.0,23.0,481.0,,Sold,,,http://www.redfin.com/CA/San-Francisco/1645-Grove-St-94117/home/2026702,San Francisco MLS,437817,N,Y,37.774992700000006,-122.4436763,San Francisco,060750165001002
250,PAST SALE,February-10-2017,Multi-Family (2-4 Unit),1641 Grove St,San Francisco,CA,94117.0,1640000.0,8.0,3.0,San Francisco,3407.0,3436.0,1922.0,23.0,481.0,,Sold,,,http://www.redfin.com/CA/San-Francisco/1641-Grove-St-94117/home/101338642,EBRD/CCAR/Bay East,40744426,N,Y,37.775199900000004,-122.44364409999999,San Francisco,060750165001002
251,PAST SALE,February-8-2017,Multi-Family (2-4 Unit),149 29th St,San Francisco,CA,94110.0,4975000.0,,,Noe Valley,,2736.0,2016.0,25.0,,,Sold,,,http://www.redfin.com/CA/San-Francisco/149-29th-St-94110/home/39864030,San Francisco MLS,445414,N,Y,37.743651,-122.423425,San Francisco,060750215003000
252,PAST SALE,February-23-2017,Single Family Residential,30 Niantic Ave,San Francisco,CA,94132.0,775000.0,2.0,2.0,Ingleside Heights,,2513.0,1908.0,10.0,,,Sold,,,http://www.redfin.com/CA/San-Francisco/30-Niantic-Ave-94132/home/835074,San Francisco MLS,441092,N,Y,37.709453100000005,-122.4682631,San Francisco,060750313023017
253,PAST SALE,February-15-2017,Single Family Residential,93 Pope St,San Francisco,CA,94112.0,1050000.0,5.0,3.0,Crocker Amazon,1650.0,3456.0,1974.0,18.0,636.0,,Sold,,,http://www.redfin.com/CA/San-Francisco/93-Pope-St-94112/home/1815560,San Francisco MLS,453276,N,Y,37.714076,-122.440591,San Francisco,060750263012014
254,PAST SALE,February-24-2017,Condo/Co-op,415 De Haro St #406,San Francisco,CA,94107.0,1635000.0,2.0,2.5,Potrero Hill,1274.0,,2014.0,9.0,1283.0,501.0,Sold,,,http://www.redfin.com/CA/San-Francisco/415-De-Haro-St-94107/unit-406/home/55533089,San Francisco MLS,451137,N,Y,37.7645926,-122.40131070000001,San Francisco,060750227041001
255,PAST SALE,February-24-2017,Single Family Residential,447 Buena Vista Ave,San Francisco,CA,94117.0,2000000.0,2.0,2.5,Buena Vista Park,2160.0,3249.0,1908.0,9.0,926.0,,Sold,,,http://www.redfin.com/CA/San-Francisco/447-Buena-Vista-Ave-E-94117/home/1718448,San Francisco MLS,453031,N,Y,37.765957,-122.44142,San Francisco,060750170002000
256,PAST SALE,February-9-2017,Multi-Family (5+ Unit),1251 Hyde St,San Francisco,CA,94109.0,2800000.0,12.0,,Nob Hill,4995.0,2935.0,1911.0,24.0,561.0,,Sold,,,http://www.redfin.com/CA/San-Francisco/1251-Hyde-St-94109/home/1908843,San Francisco MLS,453069,N,Y,37.7924875,-122.41798680000001,San Francisco,060750111001001
257,PAST SALE,February-8-2017,Condo/Co-op,555 4th St #613,San Francisco,CA,94107.0,1175000.0,2.0,2.0,South Beach,,,2006.0,25.0,,620.0,Sold,,,http://www.redfin.com/CA/San-Francisco/555-4th-St-94107/unit-613/home/22887864,San Francisco MLS,450702,N,Y,37.779089,-122.39714040000001,San Francisco,060750180001008
258,PAST SALE,March-2-2017,Single Family Residential,4209 Ulloa St,San Francisco,CA,94116.0,925000.0,3.0,2.0,Outer Parkside,800.0,2495.0,1943.0,3.0,1156.0,,Sold,,,http://www.redfin.com/CA/San-Francisco/4209-Ulloa-St-94116/home/1749950,San Francisco MLS,453287,N,Y,37.7398658,-122.5015344,San Francisco,060750354004006
259,PAST SALE,February-3-2017,Condo/Co-op,1688 Pine St Unit E1010,San Francisco,CA,94109.0,799000.0,1.0,1.0,Van Ness/Civic Center,616.0,,2016.0,30.0,1297.0,610.0,Sold,,,http://www.redfin.com/CA/San-Francisco/1688-Pine-St-94109/unit-E1010/home/107561198,San Francisco MLS,451266,N,Y,37.789258000000004,-122.4235605,San Francisco,060750151001000
260,PAST SALE,February-10-2017,Condo/Co-op,93 Cumberland St,San Francisco,CA,94110.0,6100000.0,4.0,3.5,Mission Dolores,5075.0,,1916.0,23.0,1202.0,1090.0,Sold,,,http://www.redfin.com/CA/San-Francisco/93-Cumberland-St-94110/home/109309666,San Francisco MLS,451774,N,Y,37.759050099999996,-122.4254918,San Francisco,060750207002004
261,PAST SALE,February-11-2017,Single Family Residential,871 Dolores St,San Francisco,CA,94110.0,4400000.0,5.0,4.5,Eureka Valley/Dolore,4675.0,3550.0,2016.0,22.0,941.0,,Sold,,,http://www.redfin.com/CA/San-Francisco/871-Dolores-St-94110/unit-871/home/1184150,San Francisco MLS,450625,N,Y,37.7555971,-122.42513819999999,San Francisco,060750207003005
262,PAST SALE,March-1-2017,Multi-Family (5+ Unit),201-207 Divisadero St,San Francisco,CA,94115.0,2825000.0,8.0,,Haight Ashbury,6480.0,3998.0,1921.0,4.0,436.0,,Sold,,,http://www.redfin.com/CA/San-Francisco/201-Divisadero-St-94117/unit-207/home/600283,San Francisco MLS,449399,N,Y,37.7703418,-122.43694409999999,San Francisco,060750167003002
263,PAST SALE,February-21-2017,Condo/Co-op,751 18th Ave,San Francisco,CA,94121.0,1360000.0,2.0,1.5,Central Richmond,1512.0,,1923.0,12.0,899.0,175.0,Sold,,,http://www.redfin.com/CA/San-Francisco/751-18th-Ave-94121/home/40142504,San Francisco MLS,454021,N,Y,37.7738198,-122.47701599999999,San Francisco,060750476004005
264,PAST SALE,February-28-2017,Single Family Residential,371 Victoria St,San Francisco,CA,94132.0,750000.0,2.0,1.0,Ingleside Heights,1050.0,2500.0,1941.0,5.0,714.0,,Sold,,,http://www.redfin.com/CA/San-Francisco/371-Victoria-St-94132/home/1142696,San Francisco MLS,447302,N,Y,37.7174077,-122.4655781,San Francisco,060750313021003
265,PAST SALE,March-3-2017,Single Family Residential,112 Garrison Ave,San Francisco,CA,94134.0,770000.0,4.0,2.5,Visitacion Valley,1719.0,1425.0,1963.0,2.0,448.0,154.0,Sold,,,http://www.redfin.com/CA/San-Francisco/112-Garrison-Ave-94134/home/2019837,San Francisco MLS,446699,N,Y,37.7094973,-122.4135469,San Francisco,060750264042002
266,PAST SALE,February-22-2017,Single Family Residential,45 Shore View Ave,San Francisco,CA,94121.0,2800000.0,6.0,5.0,Outer Richmond,5240.0,4046.0,1923.0,11.0,534.0,,Sold,,,http://www.redfin.com/CA/San-Francisco/45-Shore-View-Ave-94121/home/1888732,San Francisco MLS,450237,N,Y,37.78027,-122.49746299999998,San Francisco,060750478021006
267,PAST SALE,February-8-2017,Condo/Co-op,3249 17th St #2,San Francisco,CA,94110.0,1260000.0,2.0,2.0,Inner Mission,1224.0,,2016.0,25.0,1029.0,,Sold,,,http://www.redfin.com/CA/San-Francisco/3249-17th-St-94110/unit-2/home/111291751,San Francisco MLS,452848,N,Y,37.763350200000005,-122.4182818,San Francisco,060750208001000
268,PAST SALE,February-17-2017,Condo/Co-op,1631 McAllister St,San Francisco,CA,94117.0,2450000.0,3.0,3.5,North Panhandle,,,2016.0,16.0,,363.0,Sold,,,http://www.redfin.com/CA/San-Francisco/1631-McAllister-St-94115/home/49700593,San Francisco MLS,453464,N,Y,37.777417,-122.439079,San Francisco,060750158022004
269,PAST SALE,February-28-2017,Condo/Co-op,818 Van Ness Ave #204,San Francisco,CA,94109.0,848000.0,1.0,2.0,Van Ness/Civic Center,829.0,,2008.0,5.0,1023.0,487.0,Sold,,,http://www.redfin.com/CA/San-Francisco/818-Van-Ness-Ave-94109/unit-204/home/40138206,San Francisco MLS,453596,N,Y,37.783203,-122.42056840000001,San Francisco,060750124023003
270,PAST SALE,February-22-2017,Condo/Co-op,275 Burnett Ave #5,San Francisco,CA,94131.0,720000.0,1.0,1.0,Twin Peaks,694.0,,1980.0,11.0,1037.0,466.0,Sold,,,http://www.redfin.com/CA/San-Francisco/275-Burnett-Ave-94131/unit-5/home/1102002,San Francisco MLS,452923,N,Y,37.756751,-122.445746,San Francisco,060750204012004
271,PAST SALE,February-24-2017,Condo/Co-op,300 Berry St #1303,San Francisco,CA,94158.0,875000.0,1.0,1.0,Mission Bay,732.0,,2009.0,9.0,1195.0,497.0,Sold,,,http://www.redfin.com/CA/San-Francisco/300-Berry-St-94158/unit-1303/home/23455504,San Francisco MLS,453569,N,Y,37.77393,-122.39624099999999,San Francisco,060750607001010
272,PAST SALE,February-3-2017,Single Family Residential,109 Madrone Ave,San Francisco,CA,94127.0,1531000.0,3.0,2.0,West Portal,1590.0,3175.0,1920.0,30.0,963.0,,Sold,,,http://www.redfin.com/CA/San-Francisco/109-Madrone-Ave-94127/home/1985460,San Francisco MLS,453617,N,Y,37.741248,-122.46744,San Francisco,060750308004001
273,PAST SALE,February-15-2017,Single Family Residential,460 Ellsworth St,San Francisco,CA,94110.0,1600000.0,3.0,2.0,Bernal Heights,1447.0,1750.0,1908.0,18.0,1106.0,,Sold,,,http://www.redfin.com/CA/San-Francisco/460-Ellsworth-St-94110/home/1638858,San Francisco MLS,453344,N,Y,37.737543,-122.414876,San Francisco,060750254021004
274,PAST SALE,February-14-2017,Condo/Co-op,1865 Clay St #3,San Francisco,CA,94109.0,1900000.0,3.0,2.0,Pacific Heights,,,1914.0,19.0,,700.0,Sold,,,http://www.redfin.com/CA/San-Francisco/1865-Clay-St-94109/unit-3/home/57341103,San Francisco MLS,453375,N,Y,37.7918575,-122.423856,San Francisco,060750131012004
275,PAST SALE,February-6-2017,Single Family Residential,2658 21st Ave,San Francisco,CA,94116.0,1160000.0,2.0,1.0,Parkside,1565.0,2996.0,1927.0,27.0,741.0,,Sold,,,http://www.redfin.com/CA/San-Francisco/2658-21st-Ave-94116/home/1819834,San Francisco MLS,453625,N,Y,37.738141,-122.47716899999999,San Francisco,060750330003001
276,PAST SALE,February-7-2017,Single Family Residential,451 Yerba Buena Ave,San Francisco,CA,94127.0,2150000.0,3.0,2.0,Westwood Highlands,2075.0,6037.0,1925.0,26.0,1036.0,4.0,Sold,,,http://www.redfin.com/CA/San-Francisco/451-Yerba-Buena-Ave-94127/home/1024072,San Francisco MLS,453489,N,Y,37.7316591,-122.45825829999998,San Francisco,060750310001007
277,PAST SALE,February-22-2017,Single Family Residential,138 Clearfield Dr,San Francisco,CA,94132.0,1465000.0,4.0,3.0,Lake Shore,2053.0,3136.0,1951.0,11.0,714.0,,Sold,,,http://www.redfin.com/CA/San-Francisco/138-Clearfield-Dr-94132/home/1465389,San Francisco MLS,453005,N,Y,37.7310572,-122.4911429,San Francisco,060750331004021
278,PAST SALE,March-3-2017,Single Family Residential,218 Grafton Ave,San Francisco,CA,94112.0,762000.0,2.0,1.0,Ingleside,1044.0,2495.0,1912.0,2.0,730.0,,Sold,,,http://www.redfin.com/CA/San-Francisco/218-Grafton-Ave-94112/home/817475,San Francisco MLS,453629,N,Y,37.720255,-122.455537,San Francisco,060750312011008
279,PAST SALE,February-10-2017,Condo/Co-op,1624 Vallejo St #2,San Francisco,CA,94123.0,649000.0,1.0,1.0,Pacific Heights,654.0,,1890.0,23.0,992.0,457.0,Sold,,,http://www.redfin.com/CA/San-Francisco/1624-Vallejo-St-94123/unit-2/home/103935821,San Francisco MLS,453310,N,Y,37.796825,-122.424761,San Francisco,060750130001004
280,PAST SALE,February-24-2017,Single Family Residential,620 Prentiss St,San Francisco,CA,94110.0,988000.0,2.0,1.0,Bernal Heights,975.0,1750.0,1946.0,9.0,1013.0,,Sold,,,http://www.redfin.com/CA/San-Francisco/620-Prentiss-St-94110/home/1488077,San Francisco MLS,453233,N,Y,37.735518400000004,-122.4125712,San Francisco,060750254022011
281,PAST SALE,February-9-2017,Single Family Residential,330 Banks St,San Francisco,CA,94110.0,1700000.0,3.0,2.5,Bernal Heights,1253.0,1751.0,1908.0,24.0,1357.0,,Sold,,,http://www.redfin.com/CA/San-Francisco/330-Banks-St-94110/home/760493,San Francisco MLS,453356,N,Y,37.7388105,-122.4128824,San Francisco,060750254022001
282,PAST SALE,March-3-2017,Single Family Residential,2106 Baker St,San Francisco,CA,94115.0,5300000.0,4.0,3.5,Pacific Heights,3790.0,2813.0,1904.0,2.0,1398.0,,Sold,,,http://www.redfin.com/CA/San-Francisco/2106-Baker-St-94115/home/1643257,San Francisco MLS,452087,N,Y,37.790771899999996,-122.444073,San Francisco,060750134003002
283,PAST SALE,February-24-2017,Single Family Residential,193 Brewster St,San Francisco,CA,94110.0,2400000.0,3.0,3.5,Bernal Heights,,1750.0,,9.0,,,Sold,,,http://www.redfin.com/CA/San-Francisco/193-Brewster-St-94110/home/110063736,San Francisco MLS,453665,N,Y,37.743536999999996,-122.40720300000001,San Francisco,060750251003031
284,PAST SALE,February-10-2017,Condo/Co-op,235 Berry St #313,San Francisco,CA,94158.0,1280000.0,2.0,2.0,Mission Bay,1235.0,,2007.0,23.0,1036.0,623.0,Sold,,,http://www.redfin.com/CA/San-Francisco/235-Berry-St-94158/unit-313/home/22888830,San Francisco MLS,453035,N,Y,37.7748669,-122.3941757,San Francisco,060750607001007
285,PAST SALE,February-20-2017,Condo/Co-op,603 La Salle Ave #63,SAN FRANCISCO,CA,94124.0,550000.0,3.0,2.0,SAN FRANCISCO,1360.0,611.0,1981.0,13.0,404.0,340.0,Sold,,,http://www.redfin.com/CA/San-Francisco/603-La-Salle-Ave-94124/unit-63/home/1455245,MLSListings,ML81635728,N,Y,37.7273842,-122.37249879999999,San Francisco,060759806001014
286,PAST SALE,February-28-2017,Condo/Co-op,2225 23rd St #112,San Francisco,CA,94107.0,560000.0,1.0,1.0,Potrero Hill,602.0,,1989.0,5.0,930.0,465.0,Sold,,,http://www.redfin.com/CA/San-Francisco/2225-23rd-St-94107/unit-112/home/735709,San Francisco MLS,453088,N,Y,37.7543745,-122.40215559999999,San Francisco,060750614001007
287,PAST SALE,February-9-2017,Condo/Co-op,1200 Gough St Unit 4C,San Francisco,CA,94109.0,749000.0,1.0,1.0,Van Ness/Civic Center,840.0,,1966.0,24.0,892.0,643.0,Sold,,,http://www.redfin.com/CA/San-Francisco/1200-Gough-St-94109/unit-4C/home/574433,San Francisco MLS,449821,N,Y,37.7849709,-122.42429920000001,San Francisco,060750160001002
288,PAST SALE,February-22-2017,Condo/Co-op,650 Delancey St #415,San Francisco,CA,94107.0,1675000.0,2.0,2.0,South Beach,1514.0,,1996.0,11.0,1106.0,567.0,Sold,,,http://www.redfin.com/CA/San-Francisco/650-Delancey-St-94107/unit-415/home/12396322,San Francisco MLS,453652,N,Y,37.7827982,-122.38971540000001,San Francisco,060750615006010
289,PAST SALE,February-23-2017,Condo/Co-op,784 Andover St Unit B,San Francisco,CA,94110.0,1760000.0,2.0,2.5,Bernal Heights,1790.0,,2016.0,10.0,983.0,250.0,Sold,,,http://www.redfin.com/CA/San-Francisco/784-Andover-St-94110/unit-B/home/112919057,San Francisco MLS,453654,N,Y,37.733430600000005,-122.4170088,San Francisco,060750254032005
290,PAST SALE,February-10-2017,Condo/Co-op,1 Hawthorne St Unit 10F,San Francisco,CA,94105.0,1760000.0,2.0,2.0,Yerba Buena,1383.0,,2010.0,23.0,1273.0,770.0,Sold,,,http://www.redfin.com/CA/San-Francisco/1-Hawthorne-St-94105/unit-10F/home/40138284,San Francisco MLS,453340,N,Y,37.78577,-122.3988537,San Francisco,060750615002008
291,PAST SALE,February-14-2017,Multi-Family (2-4 Unit),218-220 Castro St,San Francisco,CA,94114.0,1860000.0,4.0,2.0,Duboce Triangle,3030.0,2374.0,1927.0,19.0,614.0,,Sold,,,http://www.redfin.com/CA/San-Francisco/220-Castro-St-94114/home/1992915,San Francisco MLS,453143,N,Y,37.7653834,-122.43561629999999,San Francisco,060750170002006
292,PAST SALE,February-15-2017,Single Family Residential,478 Gates St,SAN FRANCISCO,CA,94110.0,1025000.0,3.0,1.0,SAN FRANCISCO,1150.0,1751.0,1906.0,18.0,891.0,,Sold,,,http://www.redfin.com/CA/San-Francisco/478-Gates-St-94110/home/1950786,MLSListings,ML81634468,N,Y,37.737376399999995,-122.41424939999999,San Francisco,060750254021005
293,PAST SALE,February-13-2017,Single Family Residential,187 Robinhood Dr,San Francisco,CA,94127.0,1575000.0,3.0,2.5,Sherwood Forest,,,1952.0,20.0,,,Sold,,,http://www.redfin.com/CA/San-Francisco/187-Robinhood-Dr-94127/home/2000672,San Francisco MLS,453165,N,Y,37.736733,-122.45449199999999,San Francisco,060750307003013
294,PAST SALE,February-22-2017,Condo/Co-op,8100 Oceanview Ter #305,San Francisco,CA,94132.0,570000.0,1.0,1.0,Ingleside Heights,669.0,,2002.0,11.0,852.0,400.0,Sold,,,http://www.redfin.com/CA/San-Francisco/8100-Ocean-View-Ter-94132/unit-305/home/1400514,San Francisco MLS,453385,N,Y,37.7104999,-122.46777490000001,San Francisco,060750313023017
295,PAST SALE,February-8-2017,Condo/Co-op,250 Clara St #2,San Francisco,CA,94107.0,830000.0,1.0,1.5,South of Market,1070.0,,2001.0,25.0,776.0,364.0,Sold,,,http://www.redfin.com/CA/San-Francisco/250-Clara-St-94107/unit-2/home/12397865,San Francisco MLS,453392,N,Y,37.7787818,-122.403552,San Francisco,060750178021004
296,PAST SALE,February-16-2017,Condo/Co-op,601 Van Ness Ave #1132,San Francisco,CA,94102.0,640000.0,1.0,1.0,Van Ness/Civic Center,682.0,,1982.0,17.0,938.0,743.0,Sold,,,http://www.redfin.com/CA/San-Francisco/601-Van-Ness-Ave-94102/unit-1132/home/576377,San Francisco MLS,452436,N,Y,37.7815203,-122.42068090000001,San Francisco,060750160001011
297,PAST SALE,February-17-2017,Condo/Co-op,465 10th St #206,San Francisco,CA,94103.0,1220000.0,2.0,2.0,South of Market,1609.0,,1924.0,16.0,758.0,878.0,Sold,,,http://www.redfin.com/CA/San-Francisco/465-10th-St-94103/unit-206/home/12397091,San Francisco MLS,453241,N,Y,37.7708827,-122.4099833,San Francisco,060750180002035
298,PAST SALE,February-17-2017,Condo/Co-op,440 Locust St,San Francisco,CA,94118.0,1625000.0,2.0,2.5,Presidio Heights,1396.0,,2001.0,16.0,1164.0,624.0,Sold,,,http://www.redfin.com/CA/San-Francisco/440-Locust-St-94118/home/2022857,San Francisco MLS,453532,N,Y,37.787112,-122.451497,San Francisco,060750133003003
299,PAST SALE,March-2-2017,Condo/Co-op,1160 Mission St #1502,San Francisco,CA,94103.0,863000.0,1.0,1.0,South of Market,764.0,,2008.0,3.0,1130.0,673.0,Sold,,,http://www.redfin.com/CA/San-Francisco/1160-Mission-St-94103/unit-1502/home/17305223,San Francisco MLS,453545,N,Y,37.7783901,-122.41223799999999,San Francisco,060750176013001
300,PAST SALE,February-9-2017,Single Family Residential,727 Andover St,San Francisco,CA,94110.0,855000.0,2.0,1.0,Bernal Heights,880.0,1751.0,1905.0,24.0,972.0,,Sold,,,http://www.redfin.com/CA/San-Francisco/727-Andover-St-94110/home/1141022,San Francisco MLS,453259,N,Y,37.734088899999996,-122.4166989,San Francisco,060750254032008
301,PAST SALE,February-28-2017,Single Family Residential,579 19th Ave,San Francisco,CA,94121.0,1400000.0,3.0,2.0,Central Richmond,1840.0,2996.0,1919.0,5.0,761.0,,Sold,,,http://www.redfin.com/CA/San-Francisco/579-19th-Ave-94121/home/1943090,San Francisco MLS,453263,N,Y,37.7770045,-122.47832140000001,San Francisco,060750476002006
302,PAST SALE,February-8-2017,Condo/Co-op,2850 Balboa St,San Francisco,CA,94121.0,445000.0,0.0,1.0,Central Richmond,412.0,,1939.0,25.0,1080.0,86.0,Sold,,,http://www.redfin.com/CA/San-Francisco/2850-Balboa-St-94121/home/40142501,San Francisco MLS,451764,N,Y,37.776238,-122.489649,San Francisco,060750478013006
303,PAST SALE,February-14-2017,Single Family Residential,409 Nevada St,San Francisco,CA,94110.0,850000.0,1.0,1.0,Bernal Heights,950.0,1751.0,1940.0,19.0,895.0,,Sold,,,http://www.redfin.com/CA/San-Francisco/409-Nevada-St-94110/home/765714,San Francisco MLS,453304,N,Y,37.736773,-122.411445,San Francisco,060750254023017
304,PAST SALE,February-10-2017,Condo/Co-op,1080 Sutter St #1002,San Francisco,CA,94109.0,1275000.0,2.0,2.0,Downtown,1282.0,,2014.0,23.0,995.0,719.0,Sold,,,http://www.redfin.com/CA/San-Francisco/1080-Sutter-St-94109/unit-1002/home/52861698,San Francisco MLS,453237,N,Y,37.7881792,-122.41796240000001,San Francisco,060750120001001
305,PAST SALE,February-23-2017,Condo/Co-op,784 Andover St Unit A,San Francisco,CA,94110.0,1760000.0,2.0,2.0,Bernal Heights,1245.0,,2016.0,10.0,1414.0,,Sold,,,http://www.redfin.com/CA/San-Francisco/784-Andover-St-94110/unit-A/home/112915127,San Francisco MLS,453646,N,Y,37.733430600000005,-122.4170088,San Francisco,060750254032005
306,PAST SALE,February-3-2017,Single Family Residential,263 Lakeshore Dr,SAN FRANCISCO,CA,94132.0,1900000.0,4.0,3.0,SAN FRANCISCO,1905.0,3136.0,1955.0,30.0,997.0,,Sold,,,http://www.redfin.com/CA/San-Francisco/263-Lakeshore-Dr-94132/home/1951690,MLSListings,ML81635503,N,Y,37.730756899999996,-122.497371,San Francisco,060750331003014
307,PAST SALE,February-7-2017,Single Family Residential,486 Edinburgh St,San Francisco,CA,94112.0,863000.0,2.0,1.0,Excelsior,1125.0,2500.0,1922.0,26.0,767.0,,Sold,,,http://www.redfin.com/CA/San-Francisco/486-Edinburgh-St-94112/home/1752385,San Francisco MLS,453520,N,Y,37.721576,-122.432092,San Francisco,060750260012004
